[{"IsMobileShoppingEnabled": "Y", "IsMobilePaymentEnabled": "N", "unitid": 316, "streetAddress": "2191 Columbia Avenue West", "city": "Battle Creek", "state": "MI", "zip": "49015-2847", "latitude": 42.29455, "longitude": -85.23586, "storeHours": "Open 24 hrs a day, 364 days a year.", "storeName": "2191 Columbia Avenue West, Battle Creek, MI 49015-2847", "milesFrom": 7.15879690243091, "storeShortName": "W. Columbia Ave. - Battle Creek", "storePhoneNumber": "2699683371", "pharmacyPhone": "2699660310", "isPharmacy": false, "pharmacyHours": [{"dayHours": "8:00 AM - 9:00 PM", "dayOfTheWeek": "M-F"}, {"dayHours": "9:00 AM - 7:00 PM", "dayOfTheWeek": "Sat"}, {"dayHours": "10:00 AM - 6:00 PM", "dayOfTheWeek": "Sun"}]}, {"IsMobileShoppingEnabled": "Y", "IsMobilePaymentEnabled": "N", "unitid": 21, "streetAddress": "5800 Gull Rd", "city": "Kalamazoo", "state": "MI", "zip": "49048", "latitude": 42.32322, "longitude": -85.51544, "storeHours": "Open 24 hrs a day, 364 days a year.", "storeName": "5800 Gull Rd, Kalamazoo, MI 49048", "milesFrom": 8.02118801349627, "storeShortName": "Gull Rd", "storePhoneNumber": "2693826250", "pharmacyPhone": "2693372910", "isPharmacy": false, "pharmacyHours": [{"dayHours": "8:00 AM - 9:00 PM", "dayOfTheWeek": "M-F"}, {"dayHours": "9:00 AM - 7:00 PM", "dayOfTheWeek": "Sat"}, {"dayHours": "10:00 AM - 6:00 PM", "dayOfTheWeek": "Sun"}]}, {"IsMobileShoppingEnabled": "Y", "IsMobilePaymentEnabled": "N", "unitid": 195, "streetAddress": "6405 B Drive North", "city": "Battle Creek", "state": "MI", "zip": "49014", "latitude": 42.26346, "longitude": -85.17274, "storeHours": "Open 24 hrs a day, 364 days a year.", "storeName": "6405 B Drive North, Battle Creek, MI 49014", "milesFrom": 10.1213770524524, "storeShortName": "Beckley Rd", "storePhoneNumber": "2699796600", "pharmacyPhone": "2699796610", "isPharmacy": false, "pharmacyHours": [{"dayHours": "8:00 AM - 9:00 PM", "dayOfTheWeek": "M-F"}, {"dayHours": "9:00 AM - 7:00 PM", "dayOfTheWeek": "Sat"}, {"dayHours": "10:00 AM - 6:00 PM", "dayOfTheWeek": "Sun"}]}, {"IsMobileShoppingEnabled": "Y", "IsMobilePaymentEnabled": "N", "unitid": 22, "streetAddress": "5121 S Westnedge Ave", "city": "Portage", "state": "MI", "zip": "49002", "latitude": 42.24258, "longitude": -85.58724, "storeHours": "Open 24 hrs a day, 364 days a year.", "storeName": "5121 S Westnedge Ave, Portage, MI 49002", "milesFrom": 11.2668336323123, "storeShortName": "S Westnedge Ave", "storePhoneNumber": "2693813465", "pharmacyPhone": "2693372110", "isPharmacy": false, "pharmacyHours": [{"dayHours": "12:00 AM - 12:00 AM", "dayOfTheWeek": "M-F"}, {"dayHours": "12:00 AM - 12:00 AM", "dayOfTheWeek": "Sat"}, {"dayHours": "12:00 AM - 12:00 AM", "dayOfTheWeek": "Sun"}]}, {"IsMobileShoppingEnabled": "Y", "IsMobilePaymentEnabled": "N", "unitid": 196, "streetAddress": "8850 Shaver Rd", "city": "Portage", "state": "MI", "zip": "49024", "latitude": 42.18884, "longitude": -85.60385, "storeHours": "Open 24 hrs a day, 364 days a year.", "storeName": "8850 Shaver Rd, Portage, MI 49024", "milesFrom": 12.2931704780018, "storeShortName": "Portage", "storePhoneNumber": "2693214300", "pharmacyPhone": "2693214310", "isPharmacy": false, "pharmacyHours": [{"dayHours": "8:00 AM - 9:00 PM", "dayOfTheWeek": "M-F"}, {"dayHours": "9:00 AM - 7:00 PM", "dayOfTheWeek": "Sat"}, {"dayHours": "10:00 AM - 6:00 PM", "dayOfTheWeek": "Sun"}]}, {"IsMobileShoppingEnabled": "Y", "IsMobilePaymentEnabled": "N", "unitid": 119, "streetAddress": "6660 W Main St", "city": "Kalamazoo", "state": "MI", "zip": "49009", "latitude": 42.29874, "longitude": -85.67932, "storeHours": "Open 24 hrs a day, 364 days a year.", "storeName": "6660 W Main St, Kalamazoo, MI 49009", "milesFrom": 15.6279308666439, "storeShortName": "W Main St", "storePhoneNumber": "2693729100", "pharmacyPhone": "2693729110", "isPharmacy": false, "pharmacyHours": [{"dayHours": "8:00 AM - 9:00 PM", "dayOfTheWeek": "M-F"}, {"dayHours": "9:00 AM - 7:00 PM", "dayOfTheWeek": "Sat"}, {"dayHours": "10:00 AM - 6:00 PM", "dayOfTheWeek": "Sun"}]}, {"IsMobileShoppingEnabled": "Y", "IsMobilePaymentEnabled": "N", "unitid": 191, "streetAddress": "1195 M-89", "city": "Plainwell", "state": "MI", "zip": "49080", "latitude": 42.45234, "longitude": -85.66019, "storeHours": "Open 24 hrs a day, 364 days a year.", "storeName": "1195 M-89, Plainwell, MI 49080", "milesFrom": 18.7669097691145, "storeShortName": "Plainwell", "storePhoneNumber": "2696853800", "pharmacyPhone": "2696853810", "isPharmacy": false, "pharmacyHours": [{"dayHours": "8:00 AM - 9:00 PM", "dayOfTheWeek": "M-F"}, {"dayHours": "9:00 AM - 7:00 PM", "dayOfTheWeek": "Sat"}, {"dayHours": "10:00 AM - 6:00 PM", "dayOfTheWeek": "Sun"}]}, {"IsMobileShoppingEnabled": "Y", "IsMobilePaymentEnabled": "N", "unitid": 175, "streetAddress": "800 US 131", "city": "Three Rivers", "state": "MI", "zip": "49093", "latitude": 41.93409, "longitude": -85.65505, "storeHours": "Open 24 hrs a day, 364 days a year.", "storeName": "800 US 131, Three Rivers, MI 49093", "milesFrom": 27.7384001633188, "storeShortName": "Three Rivers", "storePhoneNumber": "2692791200", "pharmacyPhone": "2692791210", "isPharmacy": false, "pharmacyHours": [{"dayHours": "8:00 AM - 9:00 PM", "dayOfTheWeek": "M-F"}, {"dayHours": "9:00 AM - 7:00 PM", "dayOfTheWeek": "Sat"}, {"dayHours": "10:00 AM - 6:00 PM", "dayOfTheWeek": "Sun"}]}, {"IsMobileShoppingEnabled": "Y", "IsMobilePaymentEnabled": "N", "unitid": 179, "streetAddress": "620 E Chicago Rd", "city": "Coldwater", "state": "MI", "zip": "49036", "latitude": 41.93763, "longitude": -84.95941, "storeHours": "Open 24 hrs a day, 364 days a year.", "storeName": "620 E Chicago Rd, Coldwater, MI 49036", "milesFrom": 31.8191629897376, "storeShortName": "Coldwater", "storePhoneNumber": "5172793300", "pharmacyPhone": "5172793310", "isPharmacy": false, "pharmacyHours": [{"dayHours": "8:00 AM - 9:00 PM", "dayOfTheWeek": "M-F"}, {"dayHours": "9:00 AM - 7:00 PM", "dayOfTheWeek": "Sat"}, {"dayHours": "10:00 AM - 6:00 PM", "dayOfTheWeek": "Sun"}]}, {"IsMobileShoppingEnabled": "Y", "IsMobilePaymentEnabled": "N", "unitid": 291, "streetAddress": "408 W South St", "city": "Sturgis", "state": "MI", "zip": "49091", "latitude": 41.78661, "longitude": -85.42448, "storeHours": "Open 24 hrs a day, 364 days a year.", "storeName": "408 W South St, Sturgis, MI 49091", "milesFrom": 33.8524394198897, "storeShortName": "Sturgis", "storePhoneNumber": "2693194000", "pharmacyPhone": "2693194010", "isPharmacy": false, "pharmacyHours": [{"dayHours": "8:00 AM - 9:00 PM", "dayOfTheWeek": "M-F"}, {"dayHours": "9:00 AM - 7:00 PM", "dayOfTheWeek": "Sat"}, {"dayHours": "10:00 AM - 6:00 PM", "dayOfTheWeek": "Sun"}]}, {"IsMobileShoppingEnabled": "Y", "IsMobilePaymentEnabled": "N", "unitid": 194, "streetAddress": "1167 E Clinton Trail", "city": "Charlotte", "state": "MI", "zip": "48813", "latitude": 42.55542, "longitude": -84.81423, "storeHours": "Open 24 hrs a day, 364 days a year.", "storeName": "1167 E Clinton Trail, Charlotte, MI 48813", "milesFrom": 34.34686142733, "storeShortName": "Charlotte", "storePhoneNumber": "5175419200", "pharmacyPhone": "5175419210", "isPharmacy": false, "pharmacyHours": [{"dayHours": "8:00 AM - 9:00 PM", "dayOfTheWeek": "M-F"}, {"dayHours": "9:00 AM - 7:00 PM", "dayOfTheWeek": "Sat"}, {"dayHours": "10:00 AM - 6:00 PM", "dayOfTheWeek": "Sun"}]}, {"IsMobileShoppingEnabled": "N", "IsMobilePaymentEnabled": "N", "unitid": 199, "streetAddress": "1801 Marketplace Dr", "city": "Gaines Twp", "state": "MI", "zip": "49316-8506", "latitude": 42.84628, "longitude": -85.61958, "storeHours": "Open 24 hrs a day, 364 days a year.", "storeName": "1801 Marketplace Dr, Gaines Twp, MI 49316-8506", "milesFrom": 41.3476105609801, "storeShortName": "Gaines Twp", "storePhoneNumber": "6166566100", "pharmacyPhone": "6166566110", "isPharmacy": false, "pharmacyHours": [{"dayHours": "8:00 AM - 9:00 PM", "dayOfTheWeek": "M-F"}, {"dayHours": "9:00 AM - 7:00 PM", "dayOfTheWeek": "Sat"}, {"dayHours": "10:00 AM - 6:00 PM", "dayOfTheWeek": "Sun"}]}, {"IsMobileShoppingEnabled": "Y", "IsMobilePaymentEnabled": "N", "unitid": 36, "streetAddress": "5500 Clyde Park SW", "city": "Wyoming", "state": "MI", "zip": "49509", "latitude": 42.86378, "longitude": -85.68074, "storeHours": "Open 24 hrs a day, 364 days a year.", "storeName": "5500 Clyde Park SW, Wyoming, MI 49509", "milesFrom": 43.5241719797142, "storeShortName": "Clyde Park", "storePhoneNumber": "6165308079", "pharmacyPhone": "6165307110", "isPharmacy": false, "pharmacyHours": [{"dayHours": "8:00 AM - 9:00 PM", "dayOfTheWeek": "M-F"}, {"dayHours": "9:00 AM - 7:00 PM", "dayOfTheWeek": "Sat"}, {"dayHours": "10:00 AM - 6:00 PM", "dayOfTheWeek": "Sun"}]}, {"IsMobileShoppingEnabled": "Y", "IsMobilePaymentEnabled": "N", "unitid": 50, "streetAddress": "5531 28th St SE", "city": "Grand Rapids", "state": "MI", "zip": "49512", "latitude": 42.91611, "longitude": -85.53214, "storeHours": "Open 24 hrs a day, 364 days a year.", "storeName": "5531 28th St SE, Grand Rapids, MI 49512", "milesFrom": 44.6395383611501, "storeShortName": "Cascade", "storePhoneNumber": "6169497200", "pharmacyPhone": "6169546010", "isPharmacy": false, "pharmacyHours": [{"dayHours": "8:00 AM - 9:00 PM", "dayOfTheWeek": "M-F"}, {"dayHours": "9:00 AM - 7:00 PM", "dayOfTheWeek": "Sat"}, {"dayHours": "10:00 AM - 6:00 PM", "dayOfTheWeek": "Sun"}]}, {"IsMobileShoppingEnabled": "Y", "IsMobilePaymentEnabled": "N", "unitid": 205, "streetAddress": "11901 Fulton St", "city": "Lowell", "state": "MI", "zip": "49331", "latitude": 42.93333, "longitude": -85.37452, "storeHours": "Open 24 hrs a day, 364 days a year.", "storeName": "11901 Fulton St, Lowell, MI 49331", "milesFrom": 45.1893579212864, "storeShortName": "Lowell", "storePhoneNumber": "6168974700", "pharmacyPhone": "6168974710", "isPharmacy": false, "pharmacyHours": [{"dayHours": "8:00 AM - 9:00 PM", "dayOfTheWeek": "M-F"}, {"dayHours": "9:00 AM - 7:00 PM", "dayOfTheWeek": "Sat"}, {"dayHours": "10:00 AM - 6:00 PM", "dayOfTheWeek": "Sun"}]}, {"IsMobileShoppingEnabled": "Y", "IsMobilePaymentEnabled": "N", "unitid": 210, "streetAddress": "730 E Saginaw Hwy", "city": "Grand Ledge", "state": "MI", "zip": "48837-8411", "latitude": 42.73814, "longitude": -84.74153, "storeHours": "Open 24 hrs a day, 364 days a year.", "storeName": "730 E Saginaw Hwy, Grand Ledge, MI 48837-8411", "milesFrom": 45.4979178312106, "storeShortName": "Grand Ledge", "storePhoneNumber": "5176226800", "pharmacyPhone": "5176226810", "isPharmacy": false, "pharmacyHours": [{"dayHours": "8:00 AM - 9:00 PM", "dayOfTheWeek": "M-F"}, {"dayHours": "9:00 AM - 7:00 PM", "dayOfTheWeek": "Sat"}, {"dayHours": "10:00 AM - 6:00 PM", "dayOfTheWeek": "Sun"}]}, {"IsMobileShoppingEnabled": "Y", "IsMobilePaymentEnabled": "N", "unitid": 221, "streetAddress": "3434 Century Center Dr SW", "city": "Grandville", "state": "MI", "zip": "49418", "latitude": 42.87972, "longitude": -85.74854, "storeHours": "Open 24 hrs a day, 364 days a year.", "storeName": "3434 Century Center Dr SW, Grandville, MI 49418", "milesFrom": 45.678049461055, "storeShortName": "Grandville", "storePhoneNumber": "6167242800", "pharmacyPhone": "6167242810", "isPharmacy": false, "pharmacyHours": [{"dayHours": "8:00 AM - 9:00 PM", "dayOfTheWeek": "M-F"}, {"dayHours": "9:00 AM - 7:00 PM", "dayOfTheWeek": "Sat"}, {"dayHours": "10:00 AM - 6:00 PM", "dayOfTheWeek": "Sun"}]}, {"IsMobileShoppingEnabled": "Y", "IsMobilePaymentEnabled": "N", "unitid": 311, "streetAddress": "1540 28th Street SE", "city": "Grand Rapids", "state": "MI", "zip": "49508", "latitude": 42.91086, "longitude": -85.62921, "storeHours": "24 hours a day, 364 days a year.", "storeName": "1540 28th Street SE, Grand Rapids, MI 49508", "milesFrom": 45.801136043226, "storeShortName": "28th and Kalamazoo", "storePhoneNumber": "6164529651", "pharmacyPhone": "6162482610", "isPharmacy": false, "pharmacyHours": [{"dayHours": "8:00 AM - 9:00 PM", "dayOfTheWeek": "M-F"}, {"dayHours": "9:00 AM - 7:00 PM", "dayOfTheWeek": "Sat"}, {"dayHours": "10:00 AM - 6:00 PM", "dayOfTheWeek": "Sun"}]}, {"IsMobileShoppingEnabled": "Y", "IsMobilePaymentEnabled": "N", "unitid": 271, "streetAddress": "1223 Phoenix St.", "city": "South Haven", "state": "MI", "zip": "49090", "latitude": 42.40655, "longitude": -86.25639, "storeHours": "Open 24 hrs a day, 364 days a year.", "storeName": "1223 Phoenix St., South Haven, MI 49090", "milesFrom": 45.9398355179245, "storeShortName": "South Haven", "storePhoneNumber": "2696393500", "pharmacyPhone": "2696393510", "isPharmacy": false, "pharmacyHours": [{"dayHours": "8:00 AM - 9:00 PM", "dayOfTheWeek": "M-F"}, {"dayHours": "9:00 AM - 7:00 PM", "dayOfTheWeek": "Sat"}, {"dayHours": "10:00 AM - 6:00 PM", "dayOfTheWeek": "Sun"}]}, {"IsMobileShoppingEnabled": "N", "IsMobilePaymentEnabled": "N", "unitid": 190, "streetAddress": "2990 N Wayne St", "city": "Angola", "state": "IN", "zip": "46703", "latitude": 41.66932, "longitude": -84.9965, "storeHours": "Open 24 hrs a day, 364 days a year.", "storeName": "2990 N Wayne St, Angola, IN 46703", "milesFrom": 46.1589149128289, "storeShortName": "Angola", "storePhoneNumber": "2606681100", "pharmacyPhone": "2606681110", "isPharmacy": false, "pharmacyHours": [{"dayHours": "9:00 AM - 9:00 PM", "dayOfTheWeek": "M-F"}, {"dayHours": "9:00 AM - 7:00 PM", "dayOfTheWeek": "Sat"}, {"dayHours": "10:00 AM - 6:00 PM", "dayOfTheWeek": "Sun"}]}, {"IsMobileShoppingEnabled": "Y", "IsMobilePaymentEnabled": "N", "unitid": 254, "streetAddress": "4075 32nd Ave", "city": "Hudsonville", "state": "MI", "zip": "49426", "latitude": 42.84172, "longitude": -85.8641, "storeHours": "24/7, 364 Starting July 12!", "storeName": "4075 32nd Ave, Hudsonville, MI 49426", "milesFrom": 46.2990172121427, "storeShortName": "Hudsonville - Opening July 12!", "storePhoneNumber": "6162299400", "pharmacyPhone": "6162299410", "isPharmacy": false, "pharmacyHours": [{"dayHours": "8:00 AM - 9:00 PM", "dayOfTheWeek": "M-F"}, {"dayHours": "9:00 AM - 7:00 PM", "dayOfTheWeek": "Sat"}, {"dayHours": "10:00 AM - 6:00 PM", "dayOfTheWeek": "Sun"}]}, {"IsMobileShoppingEnabled": "Y", "IsMobilePaymentEnabled": "N", "unitid": 30, "streetAddress": "2777 Airport Rd", "city": "Jackson", "state": "MI", "zip": "49202", "latitude": 42.27123, "longitude": -84.44935, "storeHours": "Open 24 hrs a day, 364 days a year.", "storeName": "2777 Airport Rd, Jackson, MI 49202", "milesFrom": 47.0911807633045, "storeShortName": "Airport Rd", "storePhoneNumber": "5177877000", "pharmacyPhone": "5177830010", "isPharmacy": false, "pharmacyHours": [{"dayHours": "8:00 AM - 9:00 PM", "dayOfTheWeek": "M-F"}, {"dayHours": "8:00 AM - 6:00 PM", "dayOfTheWeek": "Sat"}, {"dayHours": "10:00 AM - 6:00 PM", "dayOfTheWeek": "Sun"}]}, {"IsMobileShoppingEnabled": "Y", "IsMobilePaymentEnabled": "N", "unitid": 26, "streetAddress": "0-550 Baldwin Street.", "city": "Jenison", "state": "MI", "zip": "49428", "latitude": 42.90458, "longitude": -85.79488, "storeHours": "Open 24 hrs a day, 364 days a year.", "storeName": "0-550 Baldwin Street., Jenison, MI 49428", "milesFrom": 48.1938086218789, "storeShortName": "Jenison", "storePhoneNumber": "6164575600", "pharmacyPhone": "6166672010", "isPharmacy": false, "pharmacyHours": [{"dayHours": "8:00 AM - 9:00 PM", "dayOfTheWeek": "M-F"}, {"dayHours": "9:00 AM - 7:00 PM", "dayOfTheWeek": "Sat"}, {"dayHours": "10:00 AM - 6:00 PM", "dayOfTheWeek": "Sun"}]}, {"IsMobileShoppingEnabled": "Y", "IsMobilePaymentEnabled": "N", "unitid": 303, "streetAddress": "2770 S State Rd", "city": "Ionia", "state": "MI", "zip": "48846-9475", "latitude": 42.94601, "longitude": -85.07762, "storeHours": "Open 24 hrs a day, 364 days a year.", "storeName": "2770 S State Rd, Ionia, MI 48846-9475", "milesFrom": 48.9030737237193, "storeShortName": "Ionia", "storePhoneNumber": "6165279200", "pharmacyPhone": "6165275110", "isPharmacy": false, "pharmacyHours": [{"dayHours": "8:00 AM - 9:00 PM", "dayOfTheWeek": "M-F"}, {"dayHours": "9:00 AM - 7:00 PM", "dayOfTheWeek": "Sat"}, {"dayHours": "10:00 AM - 6:00 PM", "dayOfTheWeek": "Sun"}]}, {"IsMobileShoppingEnabled": "Y", "IsMobilePaymentEnabled": "N", "unitid": 47, "streetAddress": "746 E 16th St", "city": "Holland", "state": "MI", "zip": "49423", "latitude": 42.78119, "longitude": -86.07542, "storeHours": "Open 24 hrs a day, 364 days a year.", "storeName": "746 E 16th St, Holland, MI 49423", "milesFrom": 49.9724970474998, "storeShortName": "Holland", "storePhoneNumber": "6163967221", "pharmacyPhone": "6163554810", "isPharmacy": false, "pharmacyHours": [{"dayHours": "12:00 AM - 12:00 AM", "dayOfTheWeek": "M-F"}, {"dayHours": "12:00 AM - 12:00 AM", "dayOfTheWeek": "Sat"}, {"dayHours": "12:00 AM - 12:00 AM", "dayOfTheWeek": "Sun"}]}, {"IsMobileShoppingEnabled": "Y", "IsMobilePaymentEnabled": "N", "unitid": 23, "streetAddress": "5125 W Saginaw Hwy", "city": "Lansing", "state": "MI", "zip": "48917", "latitude": 42.73911, "longitude": -84.62384, "storeHours": "Open 24 hrs a day, 364 days a year.", "storeName": "5125 W Saginaw Hwy, Lansing, MI 48917", "milesFrom": 49.9729033613293, "storeShortName": "W Saginaw Hwy", "storePhoneNumber": "5173211302", "pharmacyPhone": "5178868110", "isPharmacy": false, "pharmacyHours": [{"dayHours": "8:00 AM - 9:00 PM", "dayOfTheWeek": "M-F"}, {"dayHours": "9:00 AM - 7:00 PM", "dayOfTheWeek": "Sat"}, {"dayHours": "10:00 AM - 6:00 PM", "dayOfTheWeek": "Sun"}]}, {"IsMobileShoppingEnabled": "N", "IsMobilePaymentEnabled": "N", "unitid": 465, "streetAddress": "100 Michigan St. N.E. Suite 1830", "city": "Grand Rapids", "state": "MI", "zip": "49503", "latitude": 42.96944, "longitude": -85.66451, "storeHours": "Open 7 days a week, closed Holidays", "storeName": "100 Michigan St. N.E. Suite 1830, Grand Rapids, MI 49503", "milesFrom": 50.0627530149512, "storeShortName": "Meijer Pharmacy at Spectrum GR", "storePhoneNumber": "6162496210", "pharmacyPhone": "6162496210", "isPharmacy": true, "pharmacyHours": [{"dayHours": "7:30 AM - 8:00 PM", "dayOfTheWeek": "M-F"}, {"dayHours": "9:00 AM - 5:00 PM", "dayOfTheWeek": "Sat"}, {"dayHours": "10:00 AM - 6:00 PM", "dayOfTheWeek": "Sun"}]}, {"IsMobileShoppingEnabled": "Y", "IsMobilePaymentEnabled": "N", "unitid": 324, "streetAddress": "6200 S Pennsylvania Ave", "city": "Lansing", "state": "MI", "zip": "48911", "latitude": 42.66849, "longitude": -84.54089, "storeHours": "Open 24 hrs a day, 364 days a year.", "storeName": "6200 S Pennsylvania Ave, Lansing, MI 48911", "milesFrom": 50.420638084258, "storeShortName": "S Pennsylvania Ave", "storePhoneNumber": "5173947720", "pharmacyPhone": "5173949510", "isPharmacy": false, "pharmacyHours": [{"dayHours": "8:00 AM - 9:00 PM", "dayOfTheWeek": "M-F"}, {"dayHours": "9:00 AM - 7:00 PM", "dayOfTheWeek": "Sat"}, {"dayHours": "10:00 AM - 6:00 PM", "dayOfTheWeek": "Sun"}]}, {"IsMobileShoppingEnabled": "Y", "IsMobilePaymentEnabled": "N", "unitid": 158, "streetAddress": "1997 E Beltline NE", "city": "Grand Rapids", "state": "MI", "zip": "49525", "latitude": 42.99672, "longitude": -85.59439, "storeHours": "Open 24 hrs a day, 364 days a year.", "storeName": "1997 E Beltline NE, Grand Rapids, MI 49525", "milesFrom": 51.0652950809231, "storeShortName": "Knapps Corner", "storePhoneNumber": "6164471500", "pharmacyPhone": "6164471510", "isPharmacy": false, "pharmacyHours": [{"dayHours": "8:00 AM - 9:00 PM", "dayOfTheWeek": "M-F"}, {"dayHours": "9:00 AM - 7:00 PM", "dayOfTheWeek": "Sat"}, {"dayHours": "10:00 AM - 6:00 PM", "dayOfTheWeek": "Sun"}]}, {"IsMobileShoppingEnabled": "Y", "IsMobilePaymentEnabled": "N", "unitid": 174, "streetAddress": "550 Hull Rd", "city": "Mason", "state": "MI", "zip": "48854", "latitude": 42.56557, "longitude": -84.44555, "storeHours": "Open 24 hrs a day, 364 days a year.", "storeName": "550 Hull Rd, Mason, MI 48854", "milesFrom": 51.4098691657353, "storeShortName": "Mason", "storePhoneNumber": "5172441900", "pharmacyPhone": "5172441910", "isPharmacy": false, "pharmacyHours": [{"dayHours": "8:00 AM - 9:00 PM", "dayOfTheWeek": "M-F"}, {"dayHours": "9:00 AM - 7:00 PM", "dayOfTheWeek": "Sat"}, {"dayHours": "10:00 AM - 6:00 PM", "dayOfTheWeek": "Sun"}]}, {"IsMobileShoppingEnabled": "Y", "IsMobilePaymentEnabled": "N", "unitid": 56, "streetAddress": "3333 E Michigan Ave", "city": "Jackson", "state": "MI", "zip": "49202", "latitude": 42.25477, "longitude": -84.3596, "storeHours": "Open 24 hrs a day, 364 days a year.", "storeName": "3333 E Michigan Ave, Jackson, MI 49202", "milesFrom": 51.8925209575381, "storeShortName": "E Michigan Ave", "storePhoneNumber": "5177878722", "pharmacyPhone": "5177830210", "isPharmacy": false, "pharmacyHours": [{"dayHours": "8:00 AM - 9:00 PM", "dayOfTheWeek": "M-F"}, {"dayHours": "8:00 AM - 6:00 PM", "dayOfTheWeek": "Sat"}, {"dayHours": "10:00 AM - 6:00 PM", "dayOfTheWeek": "Sun"}]}, {"IsMobileShoppingEnabled": "Y", "IsMobilePaymentEnabled": "N", "unitid": 216, "streetAddress": "315 Wilson Ave", "city": "Grand Rapids", "state": "MI", "zip": "49534-3554", "latitude": 42.96997, "longitude": -85.77912, "storeHours": "Open 24 hrs a day, 364 days a year.", "storeName": "315 Wilson Ave, Grand Rapids, MI 49534-3554", "milesFrom": 52.1085380423533, "storeShortName": "Standale", "storePhoneNumber": "6167352100", "pharmacyPhone": "6167352110", "isPharmacy": false, "pharmacyHours": [{"dayHours": "8:00 AM - 9:00 PM", "dayOfTheWeek": "M-F"}, {"dayHours": "9:00 AM - 7:00 PM", "dayOfTheWeek": "Sat"}, {"dayHours": "10:00 AM - 6:00 PM", "dayOfTheWeek": "Sun"}]}, {"IsMobileShoppingEnabled": "Y", "IsMobilePaymentEnabled": "N", "unitid": 217, "streetAddress": "3320 West Shore Drive", "city": "Holland", "state": "MI", "zip": "49424-7753", "latitude": 42.82893, "longitude": -86.09048, "storeHours": "Open 24 hrs a day, 364 days a year.", "storeName": "3320 West Shore Drive, Holland, MI 49424-7753", "milesFrom": 52.785676321234, "storeShortName": "N Holland Twp", "storePhoneNumber": "6169941100", "pharmacyPhone": "6169941110", "isPharmacy": false, "pharmacyHours": [{"dayHours": "8:00 AM - 9:00 PM", "dayOfTheWeek": "M-F"}, {"dayHours": "9:00 AM - 7:00 PM", "dayOfTheWeek": "Sat"}, {"dayHours": "10:00 AM - 6:00 PM", "dayOfTheWeek": "Sun"}]}, {"IsMobileShoppingEnabled": "Y", "IsMobilePaymentEnabled": "N", "unitid": 127, "streetAddress": "4522 Elkhart Rd", "city": "Goshen", "state": "IN", "zip": "46526", "latitude": 41.62485, "longitude": -85.90991, "storeHours": "Open 24 hrs a day, 364 days a year.", "storeName": "4522 Elkhart Rd, Goshen, IN 46526", "milesFrom": 52.8955998591516, "storeShortName": "Goshen", "storePhoneNumber": "5748753000", "pharmacyPhone": "5748753010", "isPharmacy": false, "pharmacyHours": [{"dayHours": "9:00 AM - 9:00 PM", "dayOfTheWeek": "M-F"}, {"dayHours": "9:00 AM - 7:00 PM", "dayOfTheWeek": "Sat"}, {"dayHours": "10:00 AM - 6:00 PM", "dayOfTheWeek": "Sun"}]}, {"IsMobileShoppingEnabled": "Y", "IsMobilePaymentEnabled": "N", "unitid": 20, "streetAddress": "2425 Alpine NW", "city": "Grand Rapids", "state": "MI", "zip": "49544", "latitude": 43.00807, "longitude": -85.69168, "storeHours": "Open 24 hrs a day, 364 days a year.", "storeName": "2425 Alpine NW, Grand Rapids, MI 49544", "milesFrom": 52.9409835209595, "storeShortName": "Alpine", "storePhoneNumber": "6163646281", "pharmacyPhone": "6163656010", "isPharmacy": false, "pharmacyHours": [{"dayHours": "12:00 AM - 12:00 AM", "dayOfTheWeek": "M-F"}, {"dayHours": "12:00 AM - 12:00 AM", "dayOfTheWeek": "Sat"}, {"dayHours": "12:00 AM - 12:00 AM", "dayOfTheWeek": "Sun"}]}, {"IsMobileShoppingEnabled": "Y", "IsMobilePaymentEnabled": "N", "unitid": 312, "streetAddress": "3757 Plainfield Ave. NE", "city": "Grand Rapids", "state": "MI", "zip": "49525", "latitude": 43.03388, "longitude": -85.62809, "storeHours": "Open 24 hrs a day, 364 days a year.", "storeName": "3757 Plainfield Ave. NE, Grand Rapids, MI 49525", "milesFrom": 53.7084006505384, "storeShortName": "Plainfield Ave.", "storePhoneNumber": "6163646211", "pharmacyPhone": "6163651410", "isPharmacy": false, "pharmacyHours": [{"dayHours": "8:00 AM - 9:00 PM", "dayOfTheWeek": "M-F"}, {"dayHours": "9:00 AM - 7:00 PM", "dayOfTheWeek": "Sat"}, {"dayHours": "10:00 AM - 6:00 PM", "dayOfTheWeek": "Sun"}]}, {"IsMobileShoppingEnabled": "Y", "IsMobilePaymentEnabled": "N", "unitid": 41, "streetAddress": "1920 Pipestone Rd", "city": "Benton Harbor", "state": "MI", "zip": "49022", "latitude": 42.08205, "longitude": -86.42189, "storeHours": "Open 24 hrs a day, 364 days a year.", "storeName": "1920 Pipestone Rd, Benton Harbor, MI 49022", "milesFrom": 55.4286726928216, "storeShortName": "Benton Harbor", "storePhoneNumber": "2699267204", "pharmacyPhone": "2699346710", "isPharmacy": false, "pharmacyHours": [{"dayHours": "8:00 AM - 9:00 PM", "dayOfTheWeek": "M-F"}, {"dayHours": "9:00 AM - 7:00 PM", "dayOfTheWeek": "Sat"}, {"dayHours": "10:00 AM - 6:00 PM", "dayOfTheWeek": "Sun"}]}, {"IsMobileShoppingEnabled": "Y", "IsMobilePaymentEnabled": "N", "unitid": 52, "streetAddress": "1350 W Lake Lansing Rd", "city": "East Lansing", "state": "MI", "zip": "48823", "latitude": 42.76303, "longitude": -84.50039, "storeHours": "Open 24 hrs a day, 364 days a year.", "storeName": "1350 W Lake Lansing Rd, East Lansing, MI 48823", "milesFrom": 55.6580965754962, "storeShortName": "East Lansing", "storePhoneNumber": "5173322444", "pharmacyPhone": "5173333010", "isPharmacy": false, "pharmacyHours": [{"dayHours": "12:00 AM - 12:00 AM", "dayOfTheWeek": "M-F"}, {"dayHours": "12:00 AM - 12:00 AM", "dayOfTheWeek": "Sat"}, {"dayHours": "12:00 AM - 12:00 AM", "dayOfTheWeek": "Sun"}]}, {"IsMobileShoppingEnabled": "Y", "IsMobilePaymentEnabled": "N", "unitid": 209, "streetAddress": "12821 Crossover Drive", "city": "DeWitt", "state": "MI", "zip": "48820", "latitude": 42.82917, "longitude": -84.53699, "storeHours": "Open 24 hrs a day, 364 days a year.", "storeName": "12821 Crossover Drive, DeWitt, MI 48820", "milesFrom": 57.2461083169301, "storeShortName": "DeWitt", "storePhoneNumber": "5176694600", "pharmacyPhone": "5176694610", "isPharmacy": false, "pharmacyHours": [{"dayHours": "8:00 AM - 9:00 PM", "dayOfTheWeek": "M-F"}, {"dayHours": "9:00 AM - 7:00 PM", "dayOfTheWeek": "Sat"}, {"dayHours": "10:00 AM - 6:00 PM", "dayOfTheWeek": "Sun"}]}, {"IsMobileShoppingEnabled": "Y", "IsMobilePaymentEnabled": "N", "unitid": 25, "streetAddress": "2055 W Grand River", "city": "Okemos", "state": "MI", "zip": "48864", "latitude": 42.71915, "longitude": -84.42466, "storeHours": "Open 24 hrs a day, 364 days a year.", "storeName": "2055 W Grand River, Okemos, MI 48864", "milesFrom": 57.2949463532594, "storeShortName": "Okemos", "storePhoneNumber": "5173496800", "pharmacyPhone": "5173479110", "isPharmacy": false, "pharmacyHours": [{"dayHours": "8:00 AM - 9:00 PM", "dayOfTheWeek": "M-F"}, {"dayHours": "9:00 AM - 7:00 PM", "dayOfTheWeek": "Sat"}, {"dayHours": "10:00 AM - 6:00 PM", "dayOfTheWeek": "Sun"}]}, {"IsMobileShoppingEnabled": "Y", "IsMobilePaymentEnabled": "N", "unitid": 121, "streetAddress": "5020 Grape Rd", "city": "Mishawaka", "state": "IN", "zip": "46545", "latitude": 41.70664, "longitude": -86.18556, "storeHours": "Open 24 hrs a day, 364 days a year.", "storeName": "5020 Grape Rd, Mishawaka, IN 46545", "milesFrom": 57.5048868653664, "storeShortName": "Grape Rd Mishawaka", "storePhoneNumber": "5742733500", "pharmacyPhone": "5742733510", "isPharmacy": false, "pharmacyHours": [{"dayHours": "9:00 AM - 9:00 PM", "dayOfTheWeek": "M-F"}, {"dayHours": "9:00 AM - 7:00 PM", "dayOfTheWeek": "Sat"}, {"dayHours": "10:00 AM - 6:00 PM", "dayOfTheWeek": "Sun"}]}, {"IsMobileShoppingEnabled": "Y", "IsMobilePaymentEnabled": "N", "unitid": 226, "streetAddress": "2799 10 Mile Rd NE", "city": "Rockford", "state": "MI", "zip": "49341-9100", "latitude": 43.12001, "longitude": -85.6023, "storeHours": "Open 24 hrs a day, 364 days a year.", "storeName": "2799 10 Mile Rd NE, Rockford, MI 49341-9100", "milesFrom": 59.2862180921353, "storeShortName": "Rockford", "storePhoneNumber": "6168633400", "pharmacyPhone": "6168633410", "isPharmacy": false, "pharmacyHours": [{"dayHours": "8:00 AM - 9:00 PM", "dayOfTheWeek": "M-F"}, {"dayHours": "9:00 AM - 7:00 PM", "dayOfTheWeek": "Sat"}, {"dayHours": "10:00 AM - 6:00 PM", "dayOfTheWeek": "Sun"}]}, {"IsMobileShoppingEnabled": "Y", "IsMobilePaymentEnabled": "N", "unitid": 253, "streetAddress": "7157 E. Saginaw St.", "city": "East Lansing", "state": "MI", "zip": "48823", "latitude": 42.77397, "longitude": -84.41763, "storeHours": "24 hours a day, 364 days a year.", "storeName": "7157 E. Saginaw St., East Lansing, MI 48823", "milesFrom": 59.4108306099521, "storeShortName": "Bath Twp.", "storePhoneNumber": "5178859000", "pharmacyPhone": "5178859010", "isPharmacy": false, "pharmacyHours": [{"dayHours": "8:00 AM - 9:00 PM", "dayOfTheWeek": "M-F"}, {"dayHours": "9:00 AM - 7:00 PM", "dayOfTheWeek": "Sat"}, {"dayHours": "10:00 AM - 6:00 PM", "dayOfTheWeek": "Sun"}]}, {"IsMobileShoppingEnabled": "Y", "IsMobilePaymentEnabled": "N", "unitid": 120, "streetAddress": "3600 N Portage Rd", "city": "South Bend", "state": "IN", "zip": "46628", "latitude": 41.72643, "longitude": -86.28569, "storeHours": "Open 24 hrs a day, 364 days a year.", "storeName": "3600 N Portage Rd, South Bend, IN 46628", "milesFrom": 60.3776355817363, "storeShortName": "South Bend", "storePhoneNumber": "5742733400", "pharmacyPhone": "5742733410", "isPharmacy": false, "pharmacyHours": [{"dayHours": "9:00 AM - 9:00 PM", "dayOfTheWeek": "M-F"}, {"dayHours": "9:00 AM - 7:00 PM", "dayOfTheWeek": "Sat"}, {"dayHours": "10:00 AM - 6:00 PM", "dayOfTheWeek": "Sun"}]}, {"IsMobileShoppingEnabled": "Y", "IsMobilePaymentEnabled": "N", "unitid": 128, "streetAddress": "3610 S Bremen Hwy", "city": "Mishawaka", "state": "IN", "zip": "46544", "latitude": 41.62787, "longitude": -86.17229, "storeHours": "Open 24 hrs a day, 364 days a year.", "storeName": "3610 S Bremen Hwy, Mishawaka, IN 46544", "milesFrom": 60.841523051261, "storeShortName": "SR331 Mishawaka", "storePhoneNumber": "5742542500", "pharmacyPhone": "5742542510", "isPharmacy": false, "pharmacyHours": [{"dayHours": "9:00 AM - 9:00 PM", "dayOfTheWeek": "M-F"}, {"dayHours": "9:00 AM - 7:00 PM", "dayOfTheWeek": "Sat"}, {"dayHours": "10:00 AM - 6:00 PM", "dayOfTheWeek": "Sun"}]}, {"IsMobileShoppingEnabled": "Y", "IsMobilePaymentEnabled": "N", "unitid": 251, "streetAddress": "5019 Red Arrow Highway", "city": "Stevensville", "state": "MI", "zip": "49127", "latitude": 42.02595, "longitude": -86.51608, "storeHours": "24 hours a day, 364 days a year.", "storeName": "5019 Red Arrow Highway, Stevensville, MI 49127", "milesFrom": 60.9211431552756, "storeShortName": "Stevensville Meijer", "storePhoneNumber": "2695562400", "pharmacyPhone": "2695562410", "isPharmacy": false, "pharmacyHours": [{"dayHours": "8:00 AM - 9:00 PM", "dayOfTheWeek": "M-F"}, {"dayHours": "9:00 AM - 7:00 PM", "dayOfTheWeek": "Sat"}, {"dayHours": "10:00 AM - 6:00 PM", "dayOfTheWeek": "Sun"}]}, {"IsMobileShoppingEnabled": "Y", "IsMobilePaymentEnabled": "N", "unitid": 201, "streetAddress": "606 S Greenville West Dri", "city": "Greenville", "state": "MI", "zip": "48838", "latitude": 43.17452, "longitude": -85.27715, "storeHours": "Open 24 hrs a day, 364 days a year.", "storeName": "606 S Greenville West Dri, Greenville, MI 48838", "milesFrom": 62.3621836462437, "storeShortName": "Greenville", "storePhoneNumber": "6162257700", "pharmacyPhone": "6162257710", "isPharmacy": false, "pharmacyHours": [{"dayHours": "8:00 AM - 9:00 PM", "dayOfTheWeek": "M-F"}, {"dayHours": "9:00 AM - 7:00 PM", "dayOfTheWeek": "Sat"}, {"dayHours": "10:00 AM - 6:00 PM", "dayOfTheWeek": "Sun"}]}, {"IsMobileShoppingEnabled": "Y", "IsMobilePaymentEnabled": "N", "unitid": 248, "streetAddress": "3700 17 Mile Rd. NE", "city": "Cedar Springs", "state": "MI", "zip": "49319", "latitude": 43.21717, "longitude": -85.57917, "storeHours": "Open 24 hrs a day, 364 days a year.", "storeName": "3700 17 Mile Rd. NE, Cedar Springs, MI 49319", "milesFrom": 65.8925873297837, "storeShortName": "Cedar Springs", "storePhoneNumber": "6166964600", "pharmacyPhone": "6166964610", "isPharmacy": false, "pharmacyHours": [{"dayHours": "8:00 AM - 9:00 PM", "dayOfTheWeek": "M-F"}, {"dayHours": "9:00 AM - 7:00 PM", "dayOfTheWeek": "Sat"}, {"dayHours": "10:00 AM - 6:00 PM", "dayOfTheWeek": "Sun"}]}, {"IsMobileShoppingEnabled": "Y", "IsMobilePaymentEnabled": "N", "unitid": 180, "streetAddress": "15000 US 31", "city": "Grand Haven", "state": "MI", "zip": "49417", "latitude": 43.03936, "longitude": -86.21678, "storeHours": "Open 24 hrs a day, 364 days a year.", "storeName": "15000 US 31, Grand Haven, MI 49417", "milesFrom": 67.6404116876741, "storeShortName": "Grand Haven", "storePhoneNumber": "6168478000", "pharmacyPhone": "6168478010", "isPharmacy": false, "pharmacyHours": [{"dayHours": "8:00 AM - 9:00 PM", "dayOfTheWeek": "M-F"}, {"dayHours": "9:00 AM - 7:00 PM", "dayOfTheWeek": "Sat"}, {"dayHours": "10:00 AM - 6:00 PM", "dayOfTheWeek": "Sun"}]}, {"IsMobileShoppingEnabled": "Y", "IsMobilePaymentEnabled": "N", "unitid": 232, "streetAddress": "5300 S Harvey St", "city": "Muskegon", "state": "MI", "zip": "49444-9767", "latitude": 43.15671, "longitude": -86.20184, "storeHours": "Open 24 hrs a day, 364 days a year.", "storeName": "5300 S Harvey St, Muskegon, MI 49444-9767", "milesFrom": 73.8701103788786, "storeShortName": "S Harvey St", "storePhoneNumber": "2317996900", "pharmacyPhone": "2317996910", "isPharmacy": false, "pharmacyHours": [{"dayHours": "8:00 AM - 9:00 PM", "dayOfTheWeek": "M-F"}, {"dayHours": "9:00 AM - 7:00 PM", "dayOfTheWeek": "Sat"}, {"dayHours": "10:00 AM - 6:00 PM", "dayOfTheWeek": "Sun"}]}, {"IsMobileShoppingEnabled": "N", "IsMobilePaymentEnabled": "N", "unitid": 45, "streetAddress": "217 E US 223", "city": "Adrian", "state": "MI", "zip": "49221", "latitude": 41.87698, "longitude": -84.03584, "storeHours": "Open 24 hrs a day, 364 days a year.", "storeName": "217 E US 223, Adrian, MI 49221", "milesFrom": 73.9899105265916, "storeShortName": "Adrian", "storePhoneNumber": "5172657820", "pharmacyPhone": "5172662110", "isPharmacy": false, "pharmacyHours": [{"dayHours": "8:00 AM - 9:00 PM", "dayOfTheWeek": "M-F"}, {"dayHours": "8:00 AM - 6:00 PM", "dayOfTheWeek": "Sat"}, {"dayHours": "10:00 AM - 6:00 PM", "dayOfTheWeek": "Sun"}]}, {"IsMobileShoppingEnabled": "Y", "IsMobilePaymentEnabled": "N", "unitid": 267, "streetAddress": "1200 US-30", "city": "Warsaw", "state": "IN", "zip": "46580", "latitude": 41.26019, "longitude": -85.84119, "storeHours": "Open 24 hrs a day, 364 days a year.", "storeName": "1200 US-30, Warsaw, IN 46580", "milesFrom": 74.1749790210568, "storeShortName": "Warsaw, IN", "storePhoneNumber": "5743714100", "pharmacyPhone": "5743714110", "isPharmacy": false, "pharmacyHours": [{"dayHours": "9:00 AM - 9:00 PM", "dayOfTheWeek": "M-F"}, {"dayHours": "9:00 AM - 7:00 PM", "dayOfTheWeek": "Sat"}, {"dayHours": "10:00 AM - 6:00 PM", "dayOfTheWeek": "Sun"}]}, {"IsMobileShoppingEnabled": "Y", "IsMobilePaymentEnabled": "N", "unitid": 19, "streetAddress": "700 W Norton Ave", "city": "Muskegon", "state": "MI", "zip": "49441", "latitude": 43.19307, "longitude": -86.26123, "storeHours": "Open 24 hrs a day, 364 days a year.", "storeName": "700 W Norton Ave, Muskegon, MI 49441", "milesFrom": 77.5139341119247, "storeShortName": "Norton Shores", "storePhoneNumber": "2317399381", "pharmacyPhone": "2317335710", "isPharmacy": false, "pharmacyHours": [{"dayHours": "8:00 AM - 9:00 PM", "dayOfTheWeek": "M-F"}, {"dayHours": "9:00 AM - 7:00 PM", "dayOfTheWeek": "Sat"}, {"dayHours": "10:00 AM - 6:00 PM", "dayOfTheWeek": "Sun"}]}, {"IsMobileShoppingEnabled": "N", "IsMobilePaymentEnabled": "N", "unitid": 173, "streetAddress": "5645 Jackson Rd", "city": "Ann Arbor", "state": "MI", "zip": "48103", "latitude": 42.28568, "longitude": -83.84169, "storeHours": "Open 24 hrs a day, 364 days a year.", "storeName": "5645 Jackson Rd, Ann Arbor, MI 48103", "milesFrom": 78.4776479768903, "storeShortName": "Scio Twp", "storePhoneNumber": "7342220300", "pharmacyPhone": "7342220310", "isPharmacy": false, "pharmacyHours": [{"dayHours": "8:00 AM - 9:00 PM", "dayOfTheWeek": "M-F"}, {"dayHours": "8:00 AM - 6:00 PM", "dayOfTheWeek": "Sat"}, {"dayHours": "10:00 AM - 6:00 PM", "dayOfTheWeek": "Sun"}]}, {"IsMobileShoppingEnabled": "N", "IsMobilePaymentEnabled": "N", "unitid": 172, "streetAddress": "3883 E Grand River", "city": "Howell", "state": "MI", "zip": "48843", "latitude": 42.59065, "longitude": -83.87678, "storeHours": "Open 24 hrs a day, 364 days a year.", "storeName": "3883 E Grand River, Howell, MI 48843", "milesFrom": 79.5524707697885, "storeShortName": "Howell", "storePhoneNumber": "5175526600", "pharmacyPhone": "5175526610", "isPharmacy": false, "pharmacyHours": [{"dayHours": "8:00 AM - 9:00 PM", "dayOfTheWeek": "M-F"}, {"dayHours": "8:00 AM - 6:00 PM", "dayOfTheWeek": "Sat"}, {"dayHours": "10:00 AM - 6:00 PM", "dayOfTheWeek": "Sun"}]}, {"IsMobileShoppingEnabled": "Y", "IsMobilePaymentEnabled": "N", "unitid": 124, "streetAddress": "6309 Lima Rd", "city": "Ft. Wayne", "state": "IN", "zip": "46818", "latitude": 41.1379, "longitude": -85.16593, "storeHours": "Open 24 hrs a day, 364 days a year.", "storeName": "6309 Lima Rd, Ft. Wayne, IN 46818", "milesFrom": 79.552574744403, "storeShortName": "Lima Rd", "storePhoneNumber": "2604971000", "pharmacyPhone": "2604971010", "isPharmacy": false, "pharmacyHours": [{"dayHours": "9:00 AM - 9:00 PM", "dayOfTheWeek": "M-F"}, {"dayHours": "9:00 AM - 7:00 PM", "dayOfTheWeek": "Sat"}, {"dayHours": "10:00 AM - 6:00 PM", "dayOfTheWeek": "Sun"}]}, {"IsMobileShoppingEnabled": "N", "IsMobilePaymentEnabled": "N", "unitid": 113, "streetAddress": "2591 E M-21", "city": "Corunna", "state": "MI", "zip": "48817", "latitude": 43.00184, "longitude": -84.11577, "storeHours": "Open 24 hrs a day, 364 days a year.", "storeName": "2591 E M-21, Corunna, MI 48817", "milesFrom": 81.0288859480501, "storeShortName": "Owosso-Corunna", "storePhoneNumber": "9897433200", "pharmacyPhone": "9897432510", "isPharmacy": false, "pharmacyHours": [{"dayHours": "8:00 AM - 9:00 PM", "dayOfTheWeek": "M-F"}, {"dayHours": "9:00 AM - 7:00 PM", "dayOfTheWeek": "Sat"}, {"dayHours": "10:00 AM - 6:00 PM", "dayOfTheWeek": "Sun"}]}, {"IsMobileShoppingEnabled": "Y", "IsMobilePaymentEnabled": "N", "unitid": 138, "streetAddress": "10301 SR 37 Hwy", "city": "Ft. Wayne", "state": "IN", "zip": "46835", "latitude": 41.13384, "longitude": -85.01267, "storeHours": "Open 24 hrs a day, 364 days a year.", "storeName": "10301 SR 37 Hwy, Ft. Wayne, IN 46835", "milesFrom": 81.197110998019, "storeShortName": "Maysville Rd", "storePhoneNumber": "2604921300", "pharmacyPhone": "2604921310", "isPharmacy": false, "pharmacyHours": [{"dayHours": "9:00 AM - 9:00 PM", "dayOfTheWeek": "M-F"}, {"dayHours": "9:00 AM - 7:00 PM", "dayOfTheWeek": "Sat"}, {"dayHours": "10:00 AM - 6:00 PM", "dayOfTheWeek": "Sun"}]}, {"IsMobileShoppingEnabled": "Y", "IsMobilePaymentEnabled": "N", "unitid": 71, "streetAddress": "1800 Holton Rd", "city": "North Muskegon", "state": "MI", "zip": "49445", "latitude": 43.28345, "longitude": -86.22025, "storeHours": "Open 24 hrs a day, 364 days a year.", "storeName": "1800 Holton Rd, North Muskegon, MI 49445", "milesFrom": 81.8471880893086, "storeShortName": "Holton Rd", "storePhoneNumber": "2317447441", "pharmacyPhone": "2317447610", "isPharmacy": false, "pharmacyHours": [{"dayHours": "8:00 AM - 9:00 PM", "dayOfTheWeek": "M-F"}, {"dayHours": "9:00 AM - 7:00 PM", "dayOfTheWeek": "Sat"}, {"dayHours": "10:00 AM - 6:00 PM", "dayOfTheWeek": "Sun"}]}, {"IsMobileShoppingEnabled": "N", "IsMobilePaymentEnabled": "N", "unitid": 64, "streetAddress": "3145 Ann Arbor-Saline Rd", "city": "Ann Arbor", "state": "MI", "zip": "48103", "latitude": 42.23941, "longitude": -83.76608, "storeHours": "Open 24 hrs a day, 364 days a year.", "storeName": "3145 Ann Arbor-Saline Rd, Ann Arbor, MI 48103", "milesFrom": 82.1215411400277, "storeShortName": "Saline Rd", "storePhoneNumber": "7347697800", "pharmacyPhone": "7349973910", "isPharmacy": false, "pharmacyHours": [{"dayHours": "8:00 AM - 9:00 PM", "dayOfTheWeek": "M-F"}, {"dayHours": "8:00 AM - 6:00 PM", "dayOfTheWeek": "Sat"}, {"dayHours": "10:00 AM - 6:00 PM", "dayOfTheWeek": "Sun"}]}, {"IsMobileShoppingEnabled": "N", "IsMobilePaymentEnabled": "N", "unitid": 46, "streetAddress": "8650 W Grand River", "city": "Brighton", "state": "MI", "zip": "48116", "latitude": 42.53881, "longitude": -83.78878, "storeHours": "Open 24 hrs a day, 364 days a year.", "storeName": "8650 W Grand River, Brighton, MI 48116", "milesFrom": 83.1176554856024, "storeShortName": "Brighton", "storePhoneNumber": "8102273404", "pharmacyPhone": "8102203110", "isPharmacy": false, "pharmacyHours": [{"dayHours": "8:00 AM - 9:00 PM", "dayOfTheWeek": "M-F"}, {"dayHours": "8:00 AM - 6:00 PM", "dayOfTheWeek": "Sat"}, {"dayHours": "10:00 AM - 6:00 PM", "dayOfTheWeek": "Sun"}]}, {"IsMobileShoppingEnabled": "Y", "IsMobilePaymentEnabled": "N", "unitid": 125, "streetAddress": "5909 Illinois Rd", "city": "Ft. Wayne", "state": "IN", "zip": "46804", "latitude": 41.07151, "longitude": -85.21698, "storeHours": "Open 24 hrs a day, 364 days a year.", "storeName": "5909 Illinois Rd, Ft. Wayne, IN 46804", "milesFrom": 83.482210491059, "storeShortName": "Illinois Rd", "storePhoneNumber": "2604343900", "pharmacyPhone": "2604343910", "isPharmacy": false, "pharmacyHours": [{"dayHours": "9:00 AM - 9:00 PM", "dayOfTheWeek": "M-F"}, {"dayHours": "9:00 AM - 7:00 PM", "dayOfTheWeek": "Sat"}, {"dayHours": "10:00 AM - 6:00 PM", "dayOfTheWeek": "Sun"}]}, {"IsMobileShoppingEnabled": "N", "IsMobilePaymentEnabled": "N", "unitid": 189, "streetAddress": "137 Elliot Rd", "city": "Defiance", "state": "OH", "zip": "43512", "latitude": 41.31017, "longitude": -84.35736, "storeHours": "Open 24 hrs a day, 364 days a year.", "storeName": "137 Elliot Rd, Defiance, OH 43512", "milesFrom": 84.853001259707, "storeShortName": "Defiance", "storePhoneNumber": "4197832800", "pharmacyPhone": "4197832810", "isPharmacy": false, "pharmacyHours": [{"dayHours": "9:00 AM - 9:00 PM", "dayOfTheWeek": "M-F"}, {"dayHours": "9:00 AM - 7:00 PM", "dayOfTheWeek": "Sat"}, {"dayHours": "10:00 AM - 6:00 PM", "dayOfTheWeek": "Sun"}]}, {"IsMobileShoppingEnabled": "N", "IsMobilePaymentEnabled": "N", "unitid": 270, "streetAddress": "2805 West Cheesman Road", "city": "Alma", "state": "MI", "zip": "48801", "latitude": 43.39834, "longitude": -84.66239, "storeHours": "Open 24 hrs a day, 364 days a year.", "storeName": "2805 West Cheesman Road, Alma, MI 48801", "milesFrom": 85.5640098323865, "storeShortName": "Alma", "storePhoneNumber": "9895766100", "pharmacyPhone": "9895766010", "isPharmacy": false, "pharmacyHours": [{"dayHours": "8:00 AM - 9:00 PM", "dayOfTheWeek": "M-F"}, {"dayHours": "9:00 AM - 7:00 PM", "dayOfTheWeek": "Sat"}, {"dayHours": "10:00 AM - 6:00 PM", "dayOfTheWeek": "Sun"}]}, {"IsMobileShoppingEnabled": "N", "IsMobilePaymentEnabled": "N", "unitid": 245, "streetAddress": "2160 Hartland Rd.", "city": "Hartland", "state": "MI", "zip": "48353", "latitude": 42.63875, "longitude": -83.74424, "storeHours": "Open 24 hrs a day, 364 days a year.", "storeName": "2160 Hartland Rd., Hartland, MI 48353", "milesFrom": 86.6276477140388, "storeShortName": "Hartland Meijer", "storePhoneNumber": "8106324200", "pharmacyPhone": "8106324210", "isPharmacy": false, "pharmacyHours": [{"dayHours": "8:00 AM - 9:00 PM", "dayOfTheWeek": "M-F"}, {"dayHours": "8:00 AM - 6:00 PM", "dayOfTheWeek": "Sat"}, {"dayHours": "10:00 AM - 6:00 PM", "dayOfTheWeek": "Sun"}]}, {"IsMobileShoppingEnabled": "N", "IsMobilePaymentEnabled": "N", "unitid": 27, "streetAddress": "3825 Carpenter Rd", "city": "Ypsilanti", "state": "MI", "zip": "48197", "latitude": 42.23368, "longitude": -83.67641, "storeHours": "Open 24 hrs a day, 364 days a year.", "storeName": "3825 Carpenter Rd, Ypsilanti, MI 48197", "milesFrom": 86.6940249866873, "storeShortName": "Ypsilanti", "storePhoneNumber": "7349731200", "pharmacyPhone": "7346777110", "isPharmacy": false, "pharmacyHours": [{"dayHours": "8:00 AM - 9:00 PM", "dayOfTheWeek": "M-F"}, {"dayHours": "8:00 AM - 6:00 PM", "dayOfTheWeek": "Sat"}, {"dayHours": "10:00 AM - 6:00 PM", "dayOfTheWeek": "Sun"}]}, {"IsMobileShoppingEnabled": "N", "IsMobilePaymentEnabled": "N", "unitid": 149, "streetAddress": "5150 S Franklin St (US421", "city": "Michigan City", "state": "IN", "zip": "46360", "latitude": 41.67525, "longitude": -86.88974, "storeHours": "Open 24 hrs a day, 364 days a year.", "storeName": "5150 S Franklin St (US421, Michigan City, IN 46360", "milesFrom": 88.506190751163, "storeShortName": "Michigan City", "storePhoneNumber": "2198772400", "pharmacyPhone": "2198772410", "isPharmacy": false, "pharmacyHours": [{"dayHours": "9:00 AM - 9:00 PM", "dayOfTheWeek": "M-F"}, {"dayHours": "9:00 AM - 7:00 PM", "dayOfTheWeek": "Sat"}, {"dayHours": "10:00 AM - 6:00 PM", "dayOfTheWeek": "Sun"}]}, {"IsMobileShoppingEnabled": "N", "IsMobilePaymentEnabled": "N", "unitid": 259, "streetAddress": "4141 Morrish Rd.", "city": "Swartz Creek", "state": "MI", "zip": "48473", "latitude": 42.96833, "longitude": -83.82678, "storeHours": "Open 24 hrs a day, 364 days a year", "storeName": "4141 Morrish Rd., Swartz Creek, MI 48473", "milesFrom": 91.8118891316894, "storeShortName": "Swartz Creek", "storePhoneNumber": "8106351400", "pharmacyPhone": "8106351410", "isPharmacy": false, "pharmacyHours": [{"dayHours": "8:00 AM - 9:00 PM", "dayOfTheWeek": "M-F"}, {"dayHours": "8:00 AM - 6:00 PM", "dayOfTheWeek": "Sat"}, {"dayHours": "10:00 AM - 6:00 PM", "dayOfTheWeek": "Sun"}]}, {"IsMobileShoppingEnabled": "N", "IsMobilePaymentEnabled": "N", "unitid": 117, "streetAddress": "7240 W Central Ave", "city": "Toledo", "state": "OH", "zip": "43617", "latitude": 41.67655, "longitude": -83.71825, "storeHours": "Open 24 hrs a day, 364 days a year.", "storeName": "7240 W Central Ave, Toledo, OH 43617", "milesFrom": 94.8309387339856, "storeShortName": "W Central Ave", "storePhoneNumber": "4198438300", "pharmacyPhone": "4198438310", "isPharmacy": false, "pharmacyHours": [{"dayHours": "12:00 AM - 12:00 AM", "dayOfTheWeek": "M-F"}, {"dayHours": "12:00 AM - 12:00 AM", "dayOfTheWeek": "Sat"}, {"dayHours": "12:00 AM - 12:00 AM", "dayOfTheWeek": "Sun"}]}, {"IsMobileShoppingEnabled": "N", "IsMobilePaymentEnabled": "N", "unitid": 122, "streetAddress": "49900 Grand River Ave", "city": "Wixom", "state": "MI", "zip": "48393", "latitude": 42.49781, "longitude": -83.54127, "storeHours": "Open 24 hrs a day, 364 days a year.", "storeName": "49900 Grand River Ave, Wixom, MI 48393", "milesFrom": 95.0615471383926, "storeShortName": "Wixom", "storePhoneNumber": "2484498500", "pharmacyPhone": "2484498510", "isPharmacy": false, "pharmacyHours": [{"dayHours": "8:00 AM - 9:00 PM", "dayOfTheWeek": "M-F"}, {"dayHours": "8:00 AM - 6:00 PM", "dayOfTheWeek": "Sat"}, {"dayHours": "10:00 AM - 6:00 PM", "dayOfTheWeek": "Sun"}]}, {"IsMobileShoppingEnabled": "N", "IsMobilePaymentEnabled": "N", "unitid": 44, "streetAddress": "2474 W Hill Rd", "city": "Flint", "state": "MI", "zip": "48507", "latitude": 42.94671, "longitude": -83.72879, "storeHours": "Open 24 hrs a day, 364 days a year.", "storeName": "2474 W Hill Rd, Flint, MI 48507", "milesFrom": 95.4626341024897, "storeShortName": "W Hill Rd", "storePhoneNumber": "8102352700", "pharmacyPhone": "8107668310", "isPharmacy": false, "pharmacyHours": [{"dayHours": "8:00 AM - 9:00 PM", "dayOfTheWeek": "M-F"}, {"dayHours": "8:00 AM - 6:00 PM", "dayOfTheWeek": "Sat"}, {"dayHours": "10:00 AM - 6:00 PM", "dayOfTheWeek": "Sun"}]}, {"IsMobileShoppingEnabled": "N", "IsMobilePaymentEnabled": "N", "unitid": 32, "streetAddress": "45001 Ford Rd", "city": "Canton", "state": "MI", "zip": "48187", "latitude": 42.3194, "longitude": -83.48451, "storeHours": "Open 24 hrs a day, 364 days a year.", "storeName": "45001 Ford Rd, Canton, MI 48187", "milesFrom": 96.6083678948091, "storeShortName": "Canton", "storePhoneNumber": "7349812600", "pharmacyPhone": "7348442710", "isPharmacy": false, "pharmacyHours": [{"dayHours": "8:00 AM - 9:00 PM", "dayOfTheWeek": "M-F"}, {"dayHours": "8:00 AM - 6:00 PM", "dayOfTheWeek": "Sat"}, {"dayHours": "10:00 AM - 6:00 PM", "dayOfTheWeek": "Sun"}]}, {"IsMobileShoppingEnabled": "N", "IsMobilePaymentEnabled": "N", "unitid": 72, "streetAddress": "9701 Belleville Rd", "city": "Belleville", "state": "MI", "zip": "48111", "latitude": 42.23193, "longitude": -83.48264, "storeHours": "Open 24 hrs a day, 364 days a year.", "storeName": "9701 Belleville Rd, Belleville, MI 48111", "milesFrom": 96.7804968922704, "storeShortName": "Belleville", "storePhoneNumber": "7346971500", "pharmacyPhone": "7346990410", "isPharmacy": false, "pharmacyHours": [{"dayHours": "8:00 AM - 9:00 PM", "dayOfTheWeek": "M-F"}, {"dayHours": "8:00 AM - 6:00 PM", "dayOfTheWeek": "Sat"}, {"dayHours": "10:00 AM - 6:00 PM", "dayOfTheWeek": "Sun"}]}, {"IsMobileShoppingEnabled": "N", "IsMobilePaymentEnabled": "N", "unitid": 69, "streetAddress": "1015 Pickard St", "city": "Mt. Pleasant", "state": "MI", "zip": "48858", "latitude": 43.61465, "longitude": -84.7646, "storeHours": "Open 24 hrs a day, 364 days a year.", "storeName": "1015 Pickard St, Mt. Pleasant, MI 48858", "milesFrom": 97.2123514670902, "storeShortName": "Mt Pleasant", "storePhoneNumber": "9897724700", "pharmacyPhone": "9897752110", "isPharmacy": false, "pharmacyHours": [{"dayHours": "8:00 AM - 9:00 PM", "dayOfTheWeek": "M-F"}, {"dayHours": "9:00 AM - 7:00 PM", "dayOfTheWeek": "Sat"}, {"dayHours": "10:00 AM - 6:00 PM", "dayOfTheWeek": "Sun"}]}, {"IsMobileShoppingEnabled": "N", "IsMobilePaymentEnabled": "N", "unitid": 227, "streetAddress": "6001 Highland Rd", "city": "White Lake", "state": "MI", "zip": "48383-2744", "latitude": 42.65184, "longitude": -83.53177, "storeHours": "Open 24 hrs a day, 364 days a year.", "storeName": "6001 Highland Rd, White Lake, MI 48383-2744", "milesFrom": 97.5803937288041, "storeShortName": "White Lake Twp", "storePhoneNumber": "2488896800", "pharmacyPhone": "2488896810", "isPharmacy": false, "pharmacyHours": [{"dayHours": "8:00 AM - 9:00 PM", "dayOfTheWeek": "M-F"}, {"dayHours": "8:00 AM - 6:00 PM", "dayOfTheWeek": "Sat"}, {"dayHours": "10:00 AM - 6:00 PM", "dayOfTheWeek": "Sun"}]}, {"IsMobileShoppingEnabled": "N", "IsMobilePaymentEnabled": "N", "unitid": 203, "streetAddress": "15400 Waldron Way", "city": "Big Rapids", "state": "MI", "zip": "49307", "latitude": 43.69092, "longitude": -85.51693, "storeHours": "Open 24 hrs a day, 364 days a year.", "storeName": "15400 Waldron Way, Big Rapids, MI 49307", "milesFrom": 97.9262986879883, "storeShortName": "Big Rapids", "storePhoneNumber": "2315270200", "pharmacyPhone": "2315270210", "isPharmacy": false, "pharmacyHours": [{"dayHours": "8:00 AM - 9:00 PM", "dayOfTheWeek": "M-F"}, {"dayHours": "9:00 AM - 7:00 PM", "dayOfTheWeek": "Sat"}, {"dayHours": "10:00 AM - 6:00 PM", "dayOfTheWeek": "Sun"}]}, {"IsMobileShoppingEnabled": "N", "IsMobilePaymentEnabled": "N", "unitid": 54, "streetAddress": "20401 Haggerty Rd", "city": "Northville", "state": "MI", "zip": "48167", "latitude": 42.43558, "longitude": -83.43731, "storeHours": "Open 24 hrs a day, 364 days a year.", "storeName": "20401 Haggerty Rd, Northville, MI 48167", "milesFrom": 99.6740167536462, "storeShortName": "Northville", "storePhoneNumber": "2483492700", "pharmacyPhone": "2483492707", "isPharmacy": false, "pharmacyHours": [{"dayHours": "8:00 AM - 9:00 PM", "dayOfTheWeek": "M-F"}, {"dayHours": "8:00 AM - 6:00 PM", "dayOfTheWeek": "Sat"}, {"dayHours": "10:00 AM - 6:00 PM", "dayOfTheWeek": "Sun"}]}, {"IsMobileShoppingEnabled": "N", "IsMobilePaymentEnabled": "N", "unitid": 115, "streetAddress": "1391 Conant St", "city": "Maumee", "state": "OH", "zip": "43537", "latitude": 41.57936, "longitude": -83.6669, "storeHours": "Open 24 hrs a day, 364 days a year.", "storeName": "1391 Conant St, Maumee, OH 43537", "milesFrom": 100.253034677208, "storeShortName": "Maumee", "storePhoneNumber": "4198918700", "pharmacyPhone": "4198918710", "isPharmacy": false, "pharmacyHours": [{"dayHours": "8:00 AM - 9:00 PM", "dayOfTheWeek": "M-F"}, {"dayHours": "8:00 AM - 6:00 PM", "dayOfTheWeek": "Sat"}, {"dayHours": "10:00 AM - 6:00 PM", "dayOfTheWeek": "Sun"}]}, {"IsMobileShoppingEnabled": "N", "IsMobilePaymentEnabled": "N", "unitid": 109, "streetAddress": "1703 Haggerty Rd", "city": "Commerce Twp.", "state": "MI", "zip": "48390", "latitude": 42.54769, "longitude": -83.44215, "storeHours": "Open 24 hrs a day, 364 days a year.", "storeName": "1703 Haggerty Rd, Commerce Twp., MI 48390", "milesFrom": 100.270056471972, "storeShortName": "Commerce Twp", "storePhoneNumber": "2489607000", "pharmacyPhone": "2489263110", "isPharmacy": false, "pharmacyHours": [{"dayHours": "8:00 AM - 9:00 PM", "dayOfTheWeek": "M-F"}, {"dayHours": "8:00 AM - 6:00 PM", "dayOfTheWeek": "Sat"}, {"dayHours": "10:00 AM - 6:00 PM", "dayOfTheWeek": "Sun"}]}, {"IsMobileShoppingEnabled": "N", "IsMobilePaymentEnabled": "N", "unitid": 68, "streetAddress": "37201 Warren Rd", "city": "Westland", "state": "MI", "zip": "48185", "latitude": 42.33263, "longitude": -83.40573, "storeHours": "Open 24 hrs a day, 364 days a year.", "storeName": "37201 Warren Rd, Westland, MI 48185", "milesFrom": 100.591049772677, "storeShortName": "Westland", "storePhoneNumber": "7347281800", "pharmacyPhone": "7346410310", "isPharmacy": false, "pharmacyHours": [{"dayHours": "8:00 AM - 9:00 PM", "dayOfTheWeek": "M-F"}, {"dayHours": "8:00 AM - 6:00 PM", "dayOfTheWeek": "Sat"}, {"dayHours": "10:00 AM - 6:00 PM", "dayOfTheWeek": "Sun"}]}, {"IsMobileShoppingEnabled": "N", "IsMobilePaymentEnabled": "N", "unitid": 297, "streetAddress": "405 Porters Vale Boulevard", "city": "Valparaiso", "state": "IN", "zip": "46383", "latitude": 41.47272, "longitude": -87.01855, "storeHours": "Open 24 hrs a day, 364 days a year.", "storeName": "405 Porters Vale Boulevard, Valparaiso, IN 46383", "milesFrom": 101.213882021535, "storeShortName": "Valparaiso", "storePhoneNumber": "2193008000", "pharmacyPhone": "2193008010", "isPharmacy": false, "pharmacyHours": [{"dayHours": "9:00 AM - 9:00 PM", "dayOfTheWeek": "M-F"}, {"dayHours": "9:00 AM - 7:00 PM", "dayOfTheWeek": "Sat"}, {"dayHours": "10:00 AM - 6:00 PM", "dayOfTheWeek": "Sun"}]}, {"IsMobileShoppingEnabled": "N", "IsMobilePaymentEnabled": "N", "unitid": 29, "streetAddress": "G-2333 S Center Rd", "city": "Burton", "state": "MI", "zip": "48519", "latitude": 42.99374, "longitude": -83.63048, "storeHours": "Open 24 hrs a day, 364 days a year.", "storeName": "G-2333 S Center Rd, Burton, MI 48519", "milesFrom": 101.294568205901, "storeShortName": "S Center Rd", "storePhoneNumber": "8107444000", "pharmacyPhone": "8107449710", "isPharmacy": false, "pharmacyHours": [{"dayHours": "8:00 AM - 9:00 PM", "dayOfTheWeek": "M-F"}, {"dayHours": "8:00 AM - 6:00 PM", "dayOfTheWeek": "Sat"}, {"dayHours": "10:00 AM - 6:00 PM", "dayOfTheWeek": "Sun"}]}, {"IsMobileShoppingEnabled": "N", "IsMobilePaymentEnabled": "N", "unitid": 42, "streetAddress": "8400 Gratiot Rd", "city": "Saginaw", "state": "MI", "zip": "48603", "latitude": 43.4183, "longitude": -84.07951, "storeHours": "Open 24 hrs a day, 364 days a year.", "storeName": "8400 Gratiot Rd, Saginaw, MI 48603", "milesFrom": 102.458153091046, "storeShortName": "Gratiot Rd", "storePhoneNumber": "9897814644", "pharmacyPhone": "9897816510", "isPharmacy": false, "pharmacyHours": [{"dayHours": "8:00 AM - 9:00 PM", "dayOfTheWeek": "M-F"}, {"dayHours": "9:00 AM - 7:00 PM", "dayOfTheWeek": "Sat"}, {"dayHours": "10:00 AM - 6:00 PM", "dayOfTheWeek": "Sun"}]}, {"IsMobileShoppingEnabled": "N", "IsMobilePaymentEnabled": "N", "unitid": 118, "streetAddress": "1500 E Alexis Rd", "city": "Toledo", "state": "OH", "zip": "43612", "latitude": 41.72044, "longitude": -83.51058, "storeHours": "Open 24 hrs a day, 364 days a year.", "storeName": "1500 E Alexis Rd, Toledo, OH 43612", "milesFrom": 103.042386253534, "storeShortName": "Alexis Rd", "storePhoneNumber": "4197272000", "pharmacyPhone": "4197272010", "isPharmacy": false, "pharmacyHours": [{"dayHours": "8:00 AM - 9:00 PM", "dayOfTheWeek": "M-F"}, {"dayHours": "8:00 AM - 6:00 PM", "dayOfTheWeek": "Sat"}, {"dayHours": "10:00 AM - 6:00 PM", "dayOfTheWeek": "Sun"}]}, {"IsMobileShoppingEnabled": "N", "IsMobilePaymentEnabled": "N", "unitid": 67, "streetAddress": "1700 Telegraph Rd", "city": "Monroe", "state": "MI", "zip": "48162", "latitude": 41.94493, "longitude": -83.39934, "storeHours": "Open 24 hrs a day, 364 days a year.", "storeName": "1700 Telegraph Rd, Monroe, MI 48162", "milesFrom": 103.663465173959, "storeShortName": "Monroe", "storePhoneNumber": "7344571900", "pharmacyPhone": "7343848010", "isPharmacy": false, "pharmacyHours": [{"dayHours": "8:00 AM - 9:00 PM", "dayOfTheWeek": "M-F"}, {"dayHours": "8:00 AM - 6:00 PM", "dayOfTheWeek": "Sat"}, {"dayHours": "10:00 AM - 6:00 PM", "dayOfTheWeek": "Sun"}]}, {"IsMobileShoppingEnabled": "N", "IsMobilePaymentEnabled": "N", "unitid": 188, "streetAddress": "13000 Middlebelt Rd", "city": "Livonia", "state": "MI", "zip": "48150", "latitude": 42.37756, "longitude": -83.33077, "storeHours": "Open 24 hrs a day, 364 days a year.", "storeName": "13000 Middlebelt Rd, Livonia, MI 48150", "milesFrom": 104.561353437539, "storeShortName": "Livonia", "storePhoneNumber": "7343670000", "pharmacyPhone": "7343670010", "isPharmacy": false, "pharmacyHours": [{"dayHours": "8:00 AM - 9:00 PM", "dayOfTheWeek": "M-F"}, {"dayHours": "8:00 AM - 6:00 PM", "dayOfTheWeek": "Sat"}, {"dayHours": "10:00 AM - 6:00 PM", "dayOfTheWeek": "Sun"}]}, {"IsMobileShoppingEnabled": "N", "IsMobilePaymentEnabled": "N", "unitid": 211, "streetAddress": "10055 Olde US 20", "city": "Rossford", "state": "OH", "zip": "43460-1720", "latitude": 41.54709, "longitude": -83.58875, "storeHours": "Open 24 hrs a day, 364 days a year.", "storeName": "10055 Olde US 20, Rossford, OH 43460-1720", "milesFrom": 104.707322811815, "storeShortName": "Rossford", "storePhoneNumber": "4198734100", "pharmacyPhone": "4198734110", "isPharmacy": false, "pharmacyHours": [{"dayHours": "8:00 AM - 9:00 PM", "dayOfTheWeek": "M-F"}, {"dayHours": "8:00 AM - 6:00 PM", "dayOfTheWeek": "Sat"}, {"dayHours": "10:00 AM - 6:00 PM", "dayOfTheWeek": "Sun"}]}, {"IsMobileShoppingEnabled": "N", "IsMobilePaymentEnabled": "N", "unitid": 53, "streetAddress": "4200 Highland Rd", "city": "Waterford", "state": "MI", "zip": "48328", "latitude": 42.65313, "longitude": -83.36826, "storeHours": "Open 24 hrs a day, 364 days a year.", "storeName": "4200 Highland Rd, Waterford, MI 48328", "milesFrom": 105.273814033435, "storeShortName": "Waterford", "storePhoneNumber": "2486827200", "pharmacyPhone": "2487387810", "isPharmacy": false, "pharmacyHours": [{"dayHours": "8:00 AM - 9:00 PM", "dayOfTheWeek": "M-F"}, {"dayHours": "8:00 AM - 6:00 PM", "dayOfTheWeek": "Sat"}, {"dayHours": "10:00 AM - 6:00 PM", "dayOfTheWeek": "Sun"}]}, {"IsMobileShoppingEnabled": "N", "IsMobilePaymentEnabled": "N", "unitid": 266, "streetAddress": "6050 US-Hwy 6", "city": "Portage", "state": "IN", "zip": "46368", "latitude": 41.55287, "longitude": -87.18097, "storeHours": "Open 24 hrs a day, 364 days a year.", "storeName": "6050 US-Hwy 6, Portage, IN 46368", "milesFrom": 105.520327336355, "storeShortName": "Portage", "storePhoneNumber": "2197630401", "pharmacyPhone": "2197630310", "isPharmacy": false, "pharmacyHours": [{"dayHours": "9:00 AM - 9:00 PM", "dayOfTheWeek": "M-F"}, {"dayHours": "9:00 AM - 7:00 PM", "dayOfTheWeek": "Sat"}, {"dayHours": "10:00 AM - 6:00 PM", "dayOfTheWeek": "Sun"}]}, {"IsMobileShoppingEnabled": "N", "IsMobilePaymentEnabled": "N", "unitid": 213, "streetAddress": "9515 Birch Run Rd", "city": "Birch Run", "state": "MI", "zip": "48415", "latitude": 43.25295, "longitude": -83.76533, "storeHours": "Open 24 hrs a day, 364 days a year.", "storeName": "9515 Birch Run Rd, Birch Run, MI 48415", "milesFrom": 105.662469337557, "storeShortName": "Birch Run Twp", "storePhoneNumber": "9896241600", "pharmacyPhone": "9896241610", "isPharmacy": false, "pharmacyHours": [{"dayHours": "8:00 AM - 9:00 PM", "dayOfTheWeek": "M-F"}, {"dayHours": "8:00 AM - 6:00 PM", "dayOfTheWeek": "Sat"}, {"dayHours": "10:00 AM - 6:00 PM", "dayOfTheWeek": "Sun"}]}, {"IsMobileShoppingEnabled": "N", "IsMobilePaymentEnabled": "N", "unitid": 244, "streetAddress": "8089 Lapeer Road", "city": "Davison", "state": "MI", "zip": "48423", "latitude": 43.01483, "longitude": -83.55243, "storeHours": "Open 24 hrs a day, 364 days a year.", "storeName": "8089 Lapeer Road, Davison, MI 48423", "milesFrom": 105.808112224162, "storeShortName": "Davison", "storePhoneNumber": "8106585400", "pharmacyPhone": "8106585410", "isPharmacy": false, "pharmacyHours": [{"dayHours": "8:00 AM - 9:00 PM", "dayOfTheWeek": "M-F"}, {"dayHours": "8:00 AM - 6:00 PM", "dayOfTheWeek": "Sat"}, {"dayHours": "10:00 AM - 6:00 PM", "dayOfTheWeek": "Sun"}]}, {"IsMobileShoppingEnabled": "N", "IsMobilePaymentEnabled": "N", "unitid": 116, "streetAddress": "1725 S Wheeling", "city": "Oregon", "state": "OH", "zip": "43616", "latitude": 41.61897, "longitude": -83.48246, "storeHours": "Open 24 hrs a day, 364 days a year.", "storeName": "1725 S Wheeling, Oregon, OH 43616", "milesFrom": 107.17121697294, "storeShortName": "Oregon", "storePhoneNumber": "4196972000", "pharmacyPhone": "4196972010", "isPharmacy": false, "pharmacyHours": [{"dayHours": "8:00 AM - 9:00 PM", "dayOfTheWeek": "M-F"}, {"dayHours": "8:00 AM - 6:00 PM", "dayOfTheWeek": "Sat"}, {"dayHours": "10:00 AM - 6:00 PM", "dayOfTheWeek": "Sun"}]}, {"IsMobileShoppingEnabled": "N", "IsMobilePaymentEnabled": "N", "unitid": 278, "streetAddress": "26100 Vreeland Rd", "city": "Flat Rock", "state": "MI", "zip": "48134", "latitude": 42.11073, "longitude": -83.28936, "storeHours": "Open 24 hrs a day, 364 days a year.", "storeName": "26100 Vreeland Rd, Flat Rock, MI 48134", "milesFrom": 107.65523386112, "storeShortName": "Flat Rock", "storePhoneNumber": "7349841100", "pharmacyPhone": "7349841110", "isPharmacy": false, "pharmacyHours": [{"dayHours": "9:00 AM - 9:00 PM", "dayOfTheWeek": "M-F"}, {"dayHours": "9:00 AM - 6:00 PM", "dayOfTheWeek": "Sat"}, {"dayHours": "10:00 AM - 6:00 PM", "dayOfTheWeek": "Sun"}]}, {"IsMobileShoppingEnabled": "N", "IsMobilePaymentEnabled": "N", "unitid": 231, "streetAddress": "28800 Telegraph Rd", "city": "Southfield", "state": "MI", "zip": "48034-1950", "latitude": 42.5003, "longitude": -83.28232, "storeHours": "Open 24 hrs a day, 364 days a year.", "storeName": "28800 Telegraph Rd, Southfield, MI 48034-1950", "milesFrom": 107.784816950875, "storeShortName": "Southfield", "storePhoneNumber": "2483049500", "pharmacyPhone": "2483049510", "isPharmacy": false, "pharmacyHours": [{"dayHours": "8:00 AM - 9:00 PM", "dayOfTheWeek": "M-F"}, {"dayHours": "8:00 AM - 6:00 PM", "dayOfTheWeek": "Sat"}, {"dayHours": "10:00 AM - 6:00 PM", "dayOfTheWeek": "Sun"}]}, {"IsMobileShoppingEnabled": "N", "IsMobilePaymentEnabled": "N", "unitid": 35, "streetAddress": "14640 Pardee Rd", "city": "Taylor", "state": "MI", "zip": "48180", "latitude": 42.20052, "longitude": -83.26151, "storeHours": "Open 24 hrs a day, 364 days a year.", "storeName": "14640 Pardee Rd, Taylor, MI 48180", "milesFrom": 108.374557876063, "storeShortName": "Taylor", "storePhoneNumber": "7342873300", "pharmacyPhone": "7343744210", "isPharmacy": false, "pharmacyHours": [{"dayHours": "8:00 AM - 9:00 PM", "dayOfTheWeek": "M-F"}, {"dayHours": "8:00 AM - 6:00 PM", "dayOfTheWeek": "Sat"}, {"dayHours": "10:00 AM - 6:00 PM", "dayOfTheWeek": "Sun"}]}, {"IsMobileShoppingEnabled": "N", "IsMobilePaymentEnabled": "N", "unitid": 286, "streetAddress": "21431 Grand River Ave", "city": "Detroit", "state": "MI", "zip": "48219", "latitude": 42.41208, "longitude": -83.25276, "storeHours": "6am - 11pm, daily", "storeName": "21431 Grand River Ave, Detroit, MI 48219", "milesFrom": 108.878805543762, "storeShortName": "Grand River Ave", "storePhoneNumber": "3137787700", "pharmacyPhone": "3137787610", "isPharmacy": false, "pharmacyHours": [{"dayHours": "8:00 AM - 9:00 PM", "dayOfTheWeek": "M-F"}, {"dayHours": "8:00 AM - 6:00 PM", "dayOfTheWeek": "Sat"}, {"dayHours": "10:00 AM - 6:00 PM", "dayOfTheWeek": "Sun"}]}, {"IsMobileShoppingEnabled": "N", "IsMobilePaymentEnabled": "N", "unitid": 43, "streetAddress": "3360 Tittabawassee Rd", "city": "Saginaw", "state": "MI", "zip": "48604", "latitude": 43.48254, "longitude": -83.98248, "storeHours": "Open 24 hrs a day, 364 days a year.", "storeName": "3360 Tittabawassee Rd, Saginaw, MI 48604", "milesFrom": 108.917522899244, "storeShortName": "Tittabawassee Rd", "storePhoneNumber": "9897905101", "pharmacyPhone": "9892496010", "isPharmacy": false, "pharmacyHours": [{"dayHours": "8:00 AM - 9:00 PM", "dayOfTheWeek": "M-F"}, {"dayHours": "9:00 AM - 7:00 PM", "dayOfTheWeek": "Sat"}, {"dayHours": "10:00 AM - 6:00 PM", "dayOfTheWeek": "Sun"}]}, {"IsMobileShoppingEnabled": "N", "IsMobilePaymentEnabled": "N", "unitid": 156, "streetAddress": "2111 E Wooster St", "city": "Bowling Green", "state": "OH", "zip": "43402", "latitude": 41.37711, "longitude": -83.60754, "storeHours": "Open 24 hrs a day, 364 days a year.", "storeName": "2111 E Wooster St, Bowling Green, OH 43402", "milesFrom": 110.109303171579, "storeShortName": "Bowling Green", "storePhoneNumber": "4193738600", "pharmacyPhone": "4193738610", "isPharmacy": false, "pharmacyHours": [{"dayHours": "9:00 AM - 9:00 PM", "dayOfTheWeek": "M-F"}, {"dayHours": "9:00 AM - 7:00 PM", "dayOfTheWeek": "Sat"}, {"dayHours": "10:00 AM - 6:00 PM", "dayOfTheWeek": "Sun"}]}, {"IsMobileShoppingEnabled": "N", "IsMobilePaymentEnabled": "N", "unitid": 70, "streetAddress": "22600 Allen Rd", "city": "Woodhaven", "state": "MI", "zip": "48183", "latitude": 42.14413, "longitude": -83.23009, "storeHours": "Open 24 hrs a day, 364 days a year.", "storeName": "22600 Allen Rd, Woodhaven, MI 48183", "milesFrom": 110.295305391702, "storeShortName": "Woodhaven", "storePhoneNumber": "7346928100", "pharmacyPhone": "7343628910", "isPharmacy": false, "pharmacyHours": [{"dayHours": "8:00 AM - 9:00 PM", "dayOfTheWeek": "M-F"}, {"dayHours": "8:00 AM - 6:00 PM", "dayOfTheWeek": "Sat"}, {"dayHours": "10:00 AM - 6:00 PM", "dayOfTheWeek": "Sun"}]}, {"IsMobileShoppingEnabled": "N", "IsMobilePaymentEnabled": "N", "unitid": 185, "streetAddress": "800 Brown Rd", "city": "Auburn Hills", "state": "MI", "zip": "48326", "latitude": 42.70579, "longitude": -83.28707, "storeHours": "Open 24 hrs a day, 364 days a year.", "storeName": "800 Brown Rd, Auburn Hills, MI 48326", "milesFrom": 110.370893726968, "storeShortName": "Auburn Hills", "storePhoneNumber": "2483935100", "pharmacyPhone": "2483935110", "isPharmacy": false, "pharmacyHours": [{"dayHours": "8:00 AM - 9:00 PM", "dayOfTheWeek": "M-F"}, {"dayHours": "8:00 AM - 6:00 PM", "dayOfTheWeek": "Sat"}, {"dayHours": "10:00 AM - 6:00 PM", "dayOfTheWeek": "Sun"}]}, {"IsMobileShoppingEnabled": "N", "IsMobilePaymentEnabled": "N", "unitid": 233, "streetAddress": "3565 Fairlane Blvd.", "city": "Allen Park", "state": "MI", "zip": "48101", "latitude": 42.27891, "longitude": -83.20402, "storeHours": "Open 24 hrs a day, 364 days a year.", "storeName": "3565 Fairlane Blvd., Allen Park, MI 48101", "milesFrom": 110.833222091071, "storeShortName": "Allen Park", "storePhoneNumber": "3132531100", "pharmacyPhone": "3132531110", "isPharmacy": false, "pharmacyHours": [{"dayHours": "8:00 AM - 9:00 PM", "dayOfTheWeek": "M-F"}, {"dayHours": "8:00 AM - 6:00 PM", "dayOfTheWeek": "Sat"}, {"dayHours": "10:00 AM - 6:00 PM", "dayOfTheWeek": "Sun"}]}, {"IsMobileShoppingEnabled": "N", "IsMobilePaymentEnabled": "N", "unitid": 123, "streetAddress": "16300 Fort St", "city": "Southgate", "state": "MI", "zip": "48195", "latitude": 42.19128, "longitude": -83.18474, "storeHours": "Open 24 hrs a day, 364 days a year.", "storeName": "16300 Fort St, Southgate, MI 48195", "milesFrom": 112.258967141187, "storeShortName": "Southgate", "storePhoneNumber": "7342845300", "pharmacyPhone": "7342844250", "isPharmacy": false, "pharmacyHours": [{"dayHours": "8:00 AM - 9:00 PM", "dayOfTheWeek": "M-F"}, {"dayHours": "8:00 AM - 6:00 PM", "dayOfTheWeek": "Sat"}, {"dayHours": "10:00 AM - 6:00 PM", "dayOfTheWeek": "Sun"}]}, {"IsMobileShoppingEnabled": "N", "IsMobilePaymentEnabled": "N", "unitid": 108, "streetAddress": "7300 Eastman Ave.", "city": "Midland", "state": "MI", "zip": "48642", "latitude": 43.66331, "longitude": -84.24317, "storeHours": "Open 24 hrs a day, 364 days a year.", "storeName": "7300 Eastman Ave., Midland, MI 48642", "milesFrom": 112.394574707019, "storeShortName": "Midland", "storePhoneNumber": "9898395900", "pharmacyPhone": "9898375310", "isPharmacy": false, "pharmacyHours": [{"dayHours": "8:00 AM - 9:00 PM", "dayOfTheWeek": "M-F"}, {"dayHours": "9:00 AM - 7:00 PM", "dayOfTheWeek": "Sat"}, {"dayHours": "10:00 AM - 6:00 PM", "dayOfTheWeek": "Sun"}]}, {"IsMobileShoppingEnabled": "N", "IsMobilePaymentEnabled": "N", "unitid": 208, "streetAddress": "3710 Dix Highway", "city": "Lincoln Park", "state": "MI", "zip": "48146-3807", "latitude": 42.23204, "longitude": -83.19627, "storeHours": "Open 24 hrs a day, 364 days a year.", "storeName": "3710 Dix Highway, Lincoln Park, MI 48146-3807", "milesFrom": 112.602356481797, "storeShortName": "Lincoln Park", "storePhoneNumber": "3132941700", "pharmacyPhone": "3132941710", "isPharmacy": false, "pharmacyHours": [{"dayHours": "8:00 AM - 9:00 PM", "dayOfTheWeek": "M-F"}, {"dayHours": "8:00 AM - 6:00 PM", "dayOfTheWeek": "Sat"}, {"dayHours": "10:00 AM - 6:00 PM", "dayOfTheWeek": "Sun"}]}, {"IsMobileShoppingEnabled": "N", "IsMobilePaymentEnabled": "N", "unitid": 34, "streetAddress": "5150 Coolidge Hwy", "city": "Royal Oak", "state": "MI", "zip": "48073", "latitude": 42.53916, "longitude": -83.18176, "storeHours": "Open 24 hrs a day, 364 days a year.", "storeName": "5150 Coolidge Hwy, Royal Oak, MI 48073", "milesFrom": 113.154924785243, "storeShortName": "Royal Oak", "storePhoneNumber": "2482801800", "pharmacyPhone": "2482805010", "isPharmacy": false, "pharmacyHours": [{"dayHours": "8:00 AM - 9:00 PM", "dayOfTheWeek": "M-F"}, {"dayHours": "8:00 AM - 6:00 PM", "dayOfTheWeek": "Sat"}, {"dayHours": "10:00 AM - 6:00 PM", "dayOfTheWeek": "Sun"}]}, {"IsMobileShoppingEnabled": "N", "IsMobilePaymentEnabled": "N", "unitid": 260, "streetAddress": "3610 Marketplace Circle", "city": "Rochester Hills", "state": "MI", "zip": "48309", "latitude": 42.64351, "longitude": -83.20604, "storeHours": "Open 24 hrs a day, 364 days a year.", "storeName": "3610 Marketplace Circle, Rochester Hills, MI 48309", "milesFrom": 113.305379056861, "storeShortName": "Rochester Hills", "storePhoneNumber": "2488442900", "pharmacyPhone": "2488442810", "isPharmacy": false, "pharmacyHours": [{"dayHours": "8:00 AM - 9:00 PM", "dayOfTheWeek": "M-F"}, {"dayHours": "8:00 AM - 6:00 PM", "dayOfTheWeek": "Sat"}, {"dayHours": "10:00 AM - 6:00 PM", "dayOfTheWeek": "Sun"}]}, {"IsMobileShoppingEnabled": "N", "IsMobilePaymentEnabled": "N", "unitid": 197, "streetAddress": "900 N Lapeer Rd", "city": "Oxford", "state": "MI", "zip": "48371", "latitude": 42.84023, "longitude": -83.27064, "storeHours": "Open 24 hrs a day, 364 days a year.", "storeName": "900 N Lapeer Rd, Oxford, MI 48371", "milesFrom": 113.995999869867, "storeShortName": "Oxford Twp", "storePhoneNumber": "2482368000", "pharmacyPhone": "2482368000", "isPharmacy": false, "pharmacyHours": [{"dayHours": "8:00 AM - 9:00 PM", "dayOfTheWeek": "M-F"}, {"dayHours": "8:00 AM - 6:00 PM", "dayOfTheWeek": "Sat"}, {"dayHours": "10:00 AM - 6:00 PM", "dayOfTheWeek": "Sun"}]}, {"IsMobileShoppingEnabled": "N", "IsMobilePaymentEnabled": "N", "unitid": 165, "streetAddress": "611 US 30", "city": "Merrillville", "state": "IN", "zip": "46410", "latitude": 41.46771, "longitude": -87.34555, "storeHours": "Open 24 hrs a day, 364 days a year.", "storeName": "611 US 30, Merrillville, IN 46410", "milesFrom": 115.703219872329, "storeShortName": "Merrillville", "storePhoneNumber": "2196503700", "pharmacyPhone": "2196503710", "isPharmacy": false, "pharmacyHours": [{"dayHours": "9:00 AM - 9:00 PM", "dayOfTheWeek": "M-F"}, {"dayHours": "9:00 AM - 7:00 PM", "dayOfTheWeek": "Sat"}, {"dayHours": "10:00 AM - 6:00 PM", "dayOfTheWeek": "Sun"}]}, {"IsMobileShoppingEnabled": "N", "IsMobilePaymentEnabled": "N", "unitid": 268, "streetAddress": "1301 W. Eight Mile Rd.", "city": "Detroit", "state": "MI", "zip": "48203", "latitude": 42.44436, "longitude": -83.11917, "storeHours": "6am-11pm, daily", "storeName": "1301 W. Eight Mile Rd., Detroit, MI 48203", "milesFrom": 115.705107354579, "storeShortName": "Detroit, MI", "storePhoneNumber": "3133695200", "pharmacyPhone": "3133695210", "isPharmacy": false, "pharmacyHours": [{"dayHours": "8:00 AM - 9:00 PM", "dayOfTheWeek": "M-F"}, {"dayHours": "8:00 AM - 6:00 PM", "dayOfTheWeek": "Sat"}, {"dayHours": "10:00 AM - 6:00 PM", "dayOfTheWeek": "Sun"}]}, {"IsMobileShoppingEnabled": "N", "IsMobilePaymentEnabled": "N", "unitid": 140, "streetAddress": "1555 Demille Rd", "city": "Lapeer", "state": "MI", "zip": "48446", "latitude": 43.04114, "longitude": -83.32653, "storeHours": "Open 24 hrs a day, 364 days a year.", "storeName": "1555 Demille Rd, Lapeer, MI 48446", "milesFrom": 116.574075231404, "storeShortName": "Lapeer", "storePhoneNumber": "8106678100", "pharmacyPhone": "8106678110", "isPharmacy": false, "pharmacyHours": [{"dayHours": "9:00 AM - 9:00 PM", "dayOfTheWeek": "M-F"}, {"dayHours": "9:00 AM - 7:00 PM", "dayOfTheWeek": "Sat"}, {"dayHours": "10:00 AM - 6:00 PM", "dayOfTheWeek": "Sun"}]}, {"IsMobileShoppingEnabled": "N", "IsMobilePaymentEnabled": "N", "unitid": 57, "streetAddress": "3175 S. Rochester Rd", "city": "Rochester Hills", "state": "MI", "zip": "48306", "latitude": 42.63411, "longitude": -83.12876, "storeHours": "Open 24 hrs a day, 364 days a year.", "storeName": "3175 S. Rochester Rd, Rochester Hills, MI 48306", "milesFrom": 116.955267007775, "storeShortName": "Rochester Hills", "storePhoneNumber": "2488535570", "pharmacyPhone": "2488445010", "isPharmacy": false, "pharmacyHours": [{"dayHours": "8:00 AM - 9:00 PM", "dayOfTheWeek": "M-F"}, {"dayHours": "8:00 AM - 6:00 PM", "dayOfTheWeek": "Sat"}, {"dayHours": "10:00 AM - 6:00 PM", "dayOfTheWeek": "Sun"}]}, {"IsMobileShoppingEnabled": "N", "IsMobilePaymentEnabled": "N", "unitid": 222, "streetAddress": "1005 E. Thirteen Mile Rd", "city": "Madison Heights", "state": "MI", "zip": "48071", "latitude": 42.52309, "longitude": -83.09735, "storeHours": "Open 24 hrs a day, 364 days a year.", "storeName": "1005 E. Thirteen Mile Rd, Madison Heights, MI 48071", "milesFrom": 117.663898154609, "storeShortName": "Madison Hts", "storePhoneNumber": "2483074900", "pharmacyPhone": "2483074910", "isPharmacy": false, "pharmacyHours": [{"dayHours": "8:00 AM - 9:00 PM", "dayOfTheWeek": "M-F"}, {"dayHours": "8:00 AM - 6:00 PM", "dayOfTheWeek": "Sat"}, {"dayHours": "10:00 AM - 6:00 PM", "dayOfTheWeek": "Sun"}]}, {"IsMobileShoppingEnabled": "N", "IsMobilePaymentEnabled": "N", "unitid": 48, "streetAddress": "2980 E Wilder Rd", "city": "Bay City", "state": "MI", "zip": "48706", "latitude": 43.62132, "longitude": -83.93409, "storeHours": "Open 24 hrs a day, 364 days a year.", "storeName": "2980 E Wilder Rd, Bay City, MI 48706", "milesFrom": 118.234391763466, "storeShortName": "E Wilder Rd", "storePhoneNumber": "9896867722", "pharmacyPhone": "9896679510", "isPharmacy": false, "pharmacyHours": [{"dayHours": "8:00 AM - 9:00 PM", "dayOfTheWeek": "M-F"}, {"dayHours": "9:00 AM - 7:00 PM", "dayOfTheWeek": "Sat"}, {"dayHours": "10:00 AM - 6:00 PM", "dayOfTheWeek": "Sun"}]}, {"IsMobileShoppingEnabled": "N", "IsMobilePaymentEnabled": "N", "unitid": 187, "streetAddress": "595 N Pine Rd", "city": "Bay City", "state": "MI", "zip": "48708", "latitude": 43.58276, "longitude": -83.83933, "storeHours": "Open 24 hrs a day, 364 days a year.", "storeName": "595 N Pine Rd, Bay City, MI 48708", "milesFrom": 118.961539034575, "storeShortName": "Hampton Twp", "storePhoneNumber": "9898911500", "pharmacyPhone": "9898911510", "isPharmacy": false, "pharmacyHours": [{"dayHours": "8:00 AM - 9:00 PM", "dayOfTheWeek": "M-F"}, {"dayHours": "9:00 AM - 7:00 PM", "dayOfTheWeek": "Sat"}, {"dayHours": "10:00 AM - 6:00 PM", "dayOfTheWeek": "Sun"}]}, {"IsMobileShoppingEnabled": "N", "IsMobilePaymentEnabled": "N", "unitid": 170, "streetAddress": "10138 Indianapolis", "city": "Highland", "state": "IN", "zip": "46322", "latitude": 41.5286, "longitude": -87.47407, "storeHours": "Open 24 hrs a day, 364 days a year.", "storeName": "10138 Indianapolis, Highland, IN 46322", "milesFrom": 119.731216709753, "storeShortName": "Highland", "storePhoneNumber": "2199342100", "pharmacyPhone": "2199342110", "isPharmacy": false, "pharmacyHours": [{"dayHours": "9:00 AM - 9:00 PM", "dayOfTheWeek": "M-F"}, {"dayHours": "9:00 AM - 7:00 PM", "dayOfTheWeek": "Sat"}, {"dayHours": "10:00 AM - 6:00 PM", "dayOfTheWeek": "Sun"}]}, {"IsMobileShoppingEnabled": "N", "IsMobilePaymentEnabled": "N", "unitid": 237, "streetAddress": "29505 Mound Rd.", "city": "Warren", "state": "MI", "zip": "48092", "latitude": 42.50993, "longitude": -83.04945, "storeHours": "Open 24 hrs a day, 364 days a year.", "storeName": "29505 Mound Rd., Warren, MI 48092", "milesFrom": 119.835016630267, "storeShortName": "Warren", "storePhoneNumber": "5865732900", "pharmacyPhone": "5865732910", "isPharmacy": false, "pharmacyHours": [{"dayHours": "8:00 AM - 9:00 PM", "dayOfTheWeek": "M-F"}, {"dayHours": "8:00 AM - 6:00 PM", "dayOfTheWeek": "Sat"}, {"dayHours": "10:00 AM - 6:00 PM", "dayOfTheWeek": "Sun"}]}, {"IsMobileShoppingEnabled": "N", "IsMobilePaymentEnabled": "N", "unitid": 55, "streetAddress": "36600 Van Dyke Ave", "city": "Sterling Heights", "state": "MI", "zip": "48312", "latitude": 42.56287, "longitude": -83.02616, "storeHours": "Open 24 hrs a day, 364 days a year.", "storeName": "36600 Van Dyke Ave, Sterling Heights, MI 48312", "milesFrom": 121.475531247694, "storeShortName": "Sterling Heights", "storePhoneNumber": "5869782650", "pharmacyPhone": "5862741610", "isPharmacy": false, "pharmacyHours": [{"dayHours": "8:00 AM - 9:00 PM", "dayOfTheWeek": "M-F"}, {"dayHours": "8:00 AM - 6:00 PM", "dayOfTheWeek": "Sat"}, {"dayHours": "10:00 AM - 6:00 PM", "dayOfTheWeek": "Sun"}]}, {"IsMobileShoppingEnabled": "N", "IsMobilePaymentEnabled": "N", "unitid": 110, "streetAddress": "3298 Elida Rd", "city": "Lima", "state": "OH", "zip": "45805", "latitude": 40.77154, "longitude": -84.16155, "storeHours": "Open 24 hrs a day, 364 days a year.", "storeName": "3298 Elida Rd, Lima, OH 45805", "milesFrom": 121.530088018461, "storeShortName": "Lima", "storePhoneNumber": "4193316400", "pharmacyPhone": "4193316410", "isPharmacy": false, "pharmacyHours": [{"dayHours": "8:00 AM - 9:00 PM", "dayOfTheWeek": "M-F"}, {"dayHours": "8:00 AM - 6:00 PM", "dayOfTheWeek": "Sat"}, {"dayHours": "10:00 AM - 6:00 PM", "dayOfTheWeek": "Sun"}]}, {"IsMobileShoppingEnabled": "N", "IsMobilePaymentEnabled": "N", "unitid": 153, "streetAddress": "3820 S. Western Ave.", "city": "Marion", "state": "IN", "zip": "46953", "latitude": 40.52158, "longitude": -85.6772, "storeHours": "Open 24 hrs a day, 364 days a year.", "storeName": "3820 S. Western Ave., Marion, IN 46953", "milesFrom": 122.453073519132, "storeShortName": "Marion", "storePhoneNumber": "7656776800", "pharmacyPhone": "7656776810", "isPharmacy": false, "pharmacyHours": [{"dayHours": "9:00 AM - 9:00 PM", "dayOfTheWeek": "M-F"}, {"dayHours": "9:00 AM - 7:00 PM", "dayOfTheWeek": "Sat"}, {"dayHours": "10:00 AM - 6:00 PM", "dayOfTheWeek": "Sun"}]}, {"IsMobileShoppingEnabled": "N", "IsMobilePaymentEnabled": "N", "unitid": 306, "streetAddress": "25225 Schoenherr Rd.", "city": "Warren", "state": "MI", "zip": "47982", "latitude": 42.48024, "longitude": -82.98904, "storeHours": "Opens June 28!", "storeName": "25225 Schoenherr Rd., Warren, MI 47982", "milesFrom": 122.540587587802, "storeShortName": "Warren on 10 Mile - Opens June 28!", "storePhoneNumber": "5862109800", "pharmacyPhone": "5862109810", "isPharmacy": false, "pharmacyHours": [{"dayHours": "8:00 AM - 9:00 PM", "dayOfTheWeek": "M-F"}, {"dayHours": "9:00 AM - 7:00 PM", "dayOfTheWeek": "Sat"}, {"dayHours": "10:00 AM - 6:00 PM", "dayOfTheWeek": "Sun"}]}, {"IsMobileShoppingEnabled": "N", "IsMobilePaymentEnabled": "N", "unitid": 177, "streetAddress": "8401 26 Mile Rd", "city": "Washington Twp", "state": "MI", "zip": "48094", "latitude": 42.71622, "longitude": -83.03212, "storeHours": "Open 24 hrs a day, 364 days a year.", "storeName": "8401 26 Mile Rd, Washington Twp, MI 48094", "milesFrom": 123.226218590141, "storeShortName": "Washington Twp", "storePhoneNumber": "5866778000", "pharmacyPhone": "5866778010", "isPharmacy": false, "pharmacyHours": [{"dayHours": "8:00 AM - 9:00 PM", "dayOfTheWeek": "M-F"}, {"dayHours": "8:00 AM - 6:00 PM", "dayOfTheWeek": "Sat"}, {"dayHours": "10:00 AM - 6:00 PM", "dayOfTheWeek": "Sun"}]}, {"IsMobileShoppingEnabled": "N", "IsMobilePaymentEnabled": "N", "unitid": 51, "streetAddress": "2200 Tiffin Ave", "city": "Findlay", "state": "OH", "zip": "45840", "latitude": 41.05704, "longitude": -83.59985, "storeHours": "Open 24 hrs a day, 364 days a year.", "storeName": "2200 Tiffin Ave, Findlay, OH 45840", "milesFrom": 124.380091151701, "storeShortName": "Findlay", "storePhoneNumber": "4194232141", "pharmacyPhone": "4194274010", "isPharmacy": false, "pharmacyHours": [{"dayHours": "8:00 AM - 9:00 PM", "dayOfTheWeek": "M-F"}, {"dayHours": "9:00 AM - 7:00 PM", "dayOfTheWeek": "Sat"}, {"dayHours": "10:00 AM - 6:00 PM", "dayOfTheWeek": "Sun"}]}, {"IsMobileShoppingEnabled": "N", "IsMobilePaymentEnabled": "N", "unitid": 145, "streetAddress": "34835 Utica Rd", "city": "Fraser", "state": "MI", "zip": "48026", "latitude": 42.55073, "longitude": -82.96278, "storeHours": "Open 24 hrs a day, 364 days a year.", "storeName": "34835 Utica Rd, Fraser, MI 48026", "milesFrom": 124.581389503533, "storeShortName": "Fraser", "storePhoneNumber": "5864156400", "pharmacyPhone": "5864156410", "isPharmacy": false, "pharmacyHours": [{"dayHours": "8:00 AM - 9:00 PM", "dayOfTheWeek": "M-F"}, {"dayHours": "8:00 AM - 6:00 PM", "dayOfTheWeek": "Sat"}, {"dayHours": "10:00 AM - 6:00 PM", "dayOfTheWeek": "Sun"}]}, {"IsMobileShoppingEnabled": "N", "IsMobilePaymentEnabled": "N", "unitid": 265, "streetAddress": "9200 S. Western Ave.", "city": "Evergreen Park", "state": "IL", "zip": "60805", "latitude": 41.72475, "longitude": -87.68544, "storeHours": "6am-11pm, daily", "storeName": "9200 S. Western Ave., Evergreen Park, IL 60805", "milesFrom": 124.652965457213, "storeShortName": "Evergreen Park, IL", "storePhoneNumber": "7084998100", "pharmacyPhone": "7084998110", "isPharmacy": false, "pharmacyHours": [{"dayHours": "9:00 AM - 9:00 PM", "dayOfTheWeek": "M-F"}, {"dayHours": "9:00 AM - 7:00 PM", "dayOfTheWeek": "Sat"}, {"dayHours": "10:00 AM - 6:00 PM", "dayOfTheWeek": "Sun"}]}, {"IsMobileShoppingEnabled": "N", "IsMobilePaymentEnabled": "N", "unitid": 65, "streetAddress": "15055 Hall Rd", "city": "Utica", "state": "MI", "zip": "48315", "latitude": 42.62999, "longitude": -82.97652, "storeHours": "Open 24 hrs a day, 364 days a year.", "storeName": "15055 Hall Rd, Utica, MI 48315", "milesFrom": 124.766274596988, "storeShortName": "Shelby Twp", "storePhoneNumber": "5865660400", "pharmacyPhone": "5865664110", "isPharmacy": false, "pharmacyHours": [{"dayHours": "12:00 AM - 12:00 AM", "dayOfTheWeek": "M-F"}, {"dayHours": "12:00 AM - 12:00 AM", "dayOfTheWeek": "Sat"}, {"dayHours": "12:00 AM - 12:00 AM", "dayOfTheWeek": "Sun"}]}, {"IsMobileShoppingEnabled": "N", "IsMobilePaymentEnabled": "N", "unitid": 193, "streetAddress": "3900 W US 10", "city": "Ludington", "state": "MI", "zip": "49431", "latitude": 43.95872, "longitude": -86.37721, "storeHours": "Open 24 hrs a day, 364 days a year.", "storeName": "3900 W US 10, Ludington, MI 49431", "milesFrom": 126.492497848772, "storeShortName": "Ludington", "storePhoneNumber": "2318453700", "pharmacyPhone": "2318453710", "isPharmacy": false, "pharmacyHours": [{"dayHours": "8:00 AM - 9:00 PM", "dayOfTheWeek": "M-F"}, {"dayHours": "9:00 AM - 7:00 PM", "dayOfTheWeek": "Sat"}, {"dayHours": "10:00 AM - 6:00 PM", "dayOfTheWeek": "Sun"}]}, {"IsMobileShoppingEnabled": "N", "IsMobilePaymentEnabled": "N", "unitid": 63, "streetAddress": "30800 Little Mack", "city": "Roseville", "state": "MI", "zip": "48066", "latitude": 42.52347, "longitude": -82.90561, "storeHours": "Open 24 hrs a day, 364 days a year.", "storeName": "30800 Little Mack, Roseville, MI 48066", "milesFrom": 126.923151857804, "storeShortName": "Roseville", "storePhoneNumber": "5862966900", "pharmacyPhone": "5864156110", "isPharmacy": false, "pharmacyHours": [{"dayHours": "8:00 AM - 9:00 PM", "dayOfTheWeek": "M-F"}, {"dayHours": "8:00 AM - 6:00 PM", "dayOfTheWeek": "Sat"}, {"dayHours": "10:00 AM - 6:00 PM", "dayOfTheWeek": "Sun"}]}, {"IsMobileShoppingEnabled": "N", "IsMobilePaymentEnabled": "N", "unitid": 243, "streetAddress": "40445 S Groesbeck Hwy.", "city": "Clinton Twp", "state": "MI", "zip": "48036", "latitude": 42.59661, "longitude": -82.90371, "storeHours": "Open 24 hrs a day, 364 days a year.", "storeName": "40445 S Groesbeck Hwy., Clinton Twp, MI 48036", "milesFrom": 128.001912534529, "storeShortName": "Clinton Twp", "storePhoneNumber": "5862397000", "pharmacyPhone": "5862397010", "isPharmacy": false, "pharmacyHours": [{"dayHours": "8:00 AM - 9:00 PM", "dayOfTheWeek": "M-F"}, {"dayHours": "8:00 AM - 6:00 PM", "dayOfTheWeek": "Sat"}, {"dayHours": "10:00 AM - 6:00 PM", "dayOfTheWeek": "Sun"}]}, {"IsMobileShoppingEnabled": "N", "IsMobilePaymentEnabled": "N", "unitid": 284, "streetAddress": "7701 Green Bay Rd", "city": "Kenosha", "state": "WI", "zip": "53142", "latitude": 42.56389, "longitude": -87.88517, "storeHours": "Open 24 hrs a day, 364 days a year.", "storeName": "7701 Green Bay Rd, Kenosha, WI 53142", "milesFrom": 129.597908316001, "storeShortName": "Kenosha", "storePhoneNumber": "2626121600", "pharmacyPhone": "2626121610", "isPharmacy": false, "pharmacyHours": [{"dayHours": "9:00 AM - 9:00 PM", "dayOfTheWeek": "M-F"}, {"dayHours": "9:00 AM - 7:00 PM", "dayOfTheWeek": "Sat"}, {"dayHours": "10:00 AM - 6:00 PM", "dayOfTheWeek": "Sun"}]}, {"IsMobileShoppingEnabled": "N", "IsMobilePaymentEnabled": "N", "unitid": 141, "streetAddress": "2301 E Markland Ave", "city": "Kokomo", "state": "IN", "zip": "46901", "latitude": 40.47428, "longitude": -86.10084, "storeHours": "Open 24 hrs a day, 364 days a year.", "storeName": "2301 E Markland Ave, Kokomo, IN 46901", "milesFrom": 129.972416496642, "storeShortName": "Kokomo", "storePhoneNumber": "7654547800", "pharmacyPhone": "7654547810", "isPharmacy": false, "pharmacyHours": [{"dayHours": "9:00 AM - 9:00 PM", "dayOfTheWeek": "M-F"}, {"dayHours": "9:00 AM - 7:00 PM", "dayOfTheWeek": "Sat"}, {"dayHours": "10:00 AM - 6:00 PM", "dayOfTheWeek": "Sun"}]}, {"IsMobileShoppingEnabled": "N", "IsMobilePaymentEnabled": "N", "unitid": 280, "streetAddress": "3800 Vollmer Rd", "city": "Flossmoor", "state": "IL", "zip": "60422", "latitude": 41.53056, "longitude": -87.71057, "storeHours": "Open 24 hrs a day, 364 days a year.", "storeName": "3800 Vollmer Rd, Flossmoor, IL 60422", "milesFrom": 130.704424107709, "storeShortName": "Flossmoor", "storePhoneNumber": "7089911600", "pharmacyPhone": "7089911610", "isPharmacy": false, "pharmacyHours": [{"dayHours": "9:00 AM - 9:00 PM", "dayOfTheWeek": "M-F"}, {"dayHours": "9:00 AM - 7:00 PM", "dayOfTheWeek": "Sat"}, {"dayHours": "10:00 AM - 6:00 PM", "dayOfTheWeek": "Sun"}]}, {"IsMobileShoppingEnabled": "N", "IsMobilePaymentEnabled": "N", "unitid": 105, "streetAddress": "27255 23 Mile Rd", "city": "Chesterfield", "state": "MI", "zip": "48051", "latitude": 42.67682, "longitude": -82.83554, "storeHours": "Open 24 hrs a day, 364 days a year.", "storeName": "27255 23 Mile Rd, Chesterfield, MI 48051", "milesFrom": 132.241161886924, "storeShortName": "Chesterfield Twp", "storePhoneNumber": "5865980600", "pharmacyPhone": "5865982010", "isPharmacy": false, "pharmacyHours": [{"dayHours": "8:00 AM - 9:00 PM", "dayOfTheWeek": "M-F"}, {"dayHours": "8:00 AM - 6:00 PM", "dayOfTheWeek": "Sat"}, {"dayHours": "10:00 AM - 6:00 PM", "dayOfTheWeek": "Sun"}]}, {"IsMobileShoppingEnabled": "N", "IsMobilePaymentEnabled": "N", "unitid": 262, "streetAddress": "15701 71st Court", "city": "Orland Park", "state": "IL", "zip": "60462", "latitude": 41.60475, "longitude": -87.79083, "storeHours": "6am - 11pm daily.", "storeName": "15701 71st Court, Orland Park, IL 60462", "milesFrom": 132.723924438335, "storeShortName": "Orland Park", "storePhoneNumber": "7083429900", "pharmacyPhone": "7083429910", "isPharmacy": false, "pharmacyHours": [{"dayHours": "9:00 AM - 9:00 PM", "dayOfTheWeek": "M-F"}, {"dayHours": "9:00 AM - 7:00 PM", "dayOfTheWeek": "Sat"}, {"dayHours": "10:00 AM - 6:00 PM", "dayOfTheWeek": "Sun"}]}, {"IsMobileShoppingEnabled": "N", "IsMobilePaymentEnabled": "N", "unitid": 228, "streetAddress": "1301 Meijer Drive", "city": "Rolling Meadows", "state": "IL", "zip": "60008-4205", "latitude": 42.04793, "longitude": -87.99621, "storeHours": "Open 24 hrs a day, 364 days a year.", "storeName": "1301 Meijer Drive, Rolling Meadows, IL 60008-4205", "milesFrom": 135.064400640326, "storeShortName": "Rolling Meadows", "storePhoneNumber": "8476901500", "pharmacyPhone": "8476901210", "isPharmacy": false, "pharmacyHours": [{"dayHours": "9:00 AM - 9:00 PM", "dayOfTheWeek": "M-F"}, {"dayHours": "9:00 AM - 7:00 PM", "dayOfTheWeek": "Sat"}, {"dayHours": "10:00 AM - 6:00 PM", "dayOfTheWeek": "Sun"}]}, {"IsMobileShoppingEnabled": "N", "IsMobilePaymentEnabled": "N", "unitid": 283, "streetAddress": "171 W. Town Square Way", "city": "Oak Creek", "state": "WI", "zip": "53154", "latitude": 42.89852, "longitude": -87.91479, "storeHours": "Open 24 hrs a day, 364 days a year.", "storeName": "171 W. Town Square Way, Oak Creek, WI 53154", "milesFrom": 136.230720273861, "storeShortName": "Oak Creek", "storePhoneNumber": "4145011700", "pharmacyPhone": "4145011710", "isPharmacy": false, "pharmacyHours": [{"dayHours": "9:00 AM - 9:00 PM", "dayOfTheWeek": "M-F"}, {"dayHours": "9:00 AM - 7:00 PM", "dayOfTheWeek": "Sat"}, {"dayHours": "10:00 AM - 6:00 PM", "dayOfTheWeek": "Sun"}]}, {"IsMobileShoppingEnabled": "N", "IsMobilePaymentEnabled": "N", "unitid": 242, "streetAddress": "36865 26 Mile Rd.", "city": "Lenox", "state": "MI", "zip": "48048", "latitude": 42.72267, "longitude": -82.74117, "storeHours": "Open 24 hrs a day, 364 days a year.", "storeName": "36865 26 Mile Rd., Lenox, MI 48048", "milesFrom": 137.36826871522, "storeShortName": "Lenox Township", "storePhoneNumber": "5867165800", "pharmacyPhone": "5867165810", "isPharmacy": false, "pharmacyHours": [{"dayHours": "8:00 AM - 9:00 PM", "dayOfTheWeek": "M-F"}, {"dayHours": "8:00 AM - 6:00 PM", "dayOfTheWeek": "Sat"}, {"dayHours": "10:00 AM - 6:00 PM", "dayOfTheWeek": "Sun"}]}, {"IsMobileShoppingEnabled": "N", "IsMobilePaymentEnabled": "N", "unitid": 289, "streetAddress": "750 E Rollins Rd", "city": "Round Lake Beach", "state": "IL", "zip": "60073", "latitude": 42.38161, "longitude": -88.06601, "storeHours": "Open 24 hrs a day, 364 days a year.", "storeName": "750 E Rollins Rd, Round Lake Beach, IL 60073", "milesFrom": 137.703776806202, "storeShortName": "Round Lake Beach", "storePhoneNumber": "8472010800", "pharmacyPhone": "8472010810", "isPharmacy": false, "pharmacyHours": [{"dayHours": "9:00 AM - 9:00 PM", "dayOfTheWeek": "M-F"}, {"dayHours": "9:00 PM - 7:00 PM", "dayOfTheWeek": "Sat"}, {"dayHours": "10:00 AM - 6:00 PM", "dayOfTheWeek": "Sun"}]}, {"IsMobileShoppingEnabled": "N", "IsMobilePaymentEnabled": "N", "unitid": 171, "streetAddress": "8605 E 34 Rd", "city": "Cadillac", "state": "MI", "zip": "49601", "latitude": 44.28397, "longitude": -85.40483, "storeHours": "Open 24 hrs a day, 364 days a year.", "storeName": "8605 E 34 Rd, Cadillac, MI 49601", "milesFrom": 138.626652453632, "storeShortName": "Cadillac", "storePhoneNumber": "2318762800", "pharmacyPhone": "2318762810", "isPharmacy": false, "pharmacyHours": [{"dayHours": "8:00 AM - 9:00 PM", "dayOfTheWeek": "M-F"}, {"dayHours": "9:00 AM - 7:00 PM", "dayOfTheWeek": "Sat"}, {"dayHours": "10:00 AM - 6:00 PM", "dayOfTheWeek": "Sun"}]}, {"IsMobileShoppingEnabled": "N", "IsMobilePaymentEnabled": "N", "unitid": 219, "streetAddress": "14169 S. Bell Rd", "city": "Homer Glen", "state": "IL", "zip": "60491-8464", "latitude": 41.63132, "longitude": -87.92776, "storeHours": "Open 24 hrs a day, 364 days a year.", "storeName": "14169 S. Bell Rd, Homer Glen, IL 60491-8464", "milesFrom": 138.731872748596, "storeShortName": "Homer Glen", "storePhoneNumber": "7086455800", "pharmacyPhone": "7086455810", "isPharmacy": false, "pharmacyHours": [{"dayHours": "9:00 AM - 9:00 PM", "dayOfTheWeek": "M-F"}, {"dayHours": "9:00 AM - 7:00 PM", "dayOfTheWeek": "Sat"}, {"dayHours": "10:00 AM - 6:00 PM", "dayOfTheWeek": "Sun"}]}, {"IsMobileShoppingEnabled": "N", "IsMobilePaymentEnabled": "N", "unitid": 273, "streetAddress": "11305 Lincoln Hwy", "city": "Mokena", "state": "IL", "zip": "60448-2070", "latitude": 41.49952, "longitude": -87.89024, "storeHours": "Open 24 hrs a day, 364 days a year.", "storeName": "11305 Lincoln Hwy, Mokena, IL 60448-2070", "milesFrom": 139.981016071785, "storeShortName": "Mokena", "storePhoneNumber": "8152770500", "pharmacyPhone": "8152770510", "isPharmacy": false, "pharmacyHours": [{"dayHours": "9:00 AM - 9:00 PM", "dayOfTheWeek": "M-F"}, {"dayHours": "9:00 AM - 7:00 PM", "dayOfTheWeek": "Sat"}, {"dayHours": "10:00 AM - 6:00 PM", "dayOfTheWeek": "Sun"}]}, {"IsMobileShoppingEnabled": "N", "IsMobilePaymentEnabled": "N", "unitid": 292, "streetAddress": "5800 W. Layton Ave.", "city": "Greenfield", "state": "WI", "zip": "53220", "latitude": 42.96129, "longitude": -87.98633, "storeHours": "Open 24 hrs a day, 364 days a year.", "storeName": "5800 W. Layton Ave., Greenfield, WI 53220", "milesFrom": 141.029055202454, "storeShortName": "Greenfield", "storePhoneNumber": "4143042000", "pharmacyPhone": "4143042010", "isPharmacy": false, "pharmacyHours": [{"dayHours": "9:00 AM - 9:00 PM", "dayOfTheWeek": "M-F"}, {"dayHours": "9:00 AM - 7:00 PM", "dayOfTheWeek": "Sat"}, {"dayHours": "10:00 AM - 6:00 PM", "dayOfTheWeek": "Sun"}]}, {"IsMobileShoppingEnabled": "N", "IsMobilePaymentEnabled": "N", "unitid": 215, "streetAddress": "755 E Boughton Rd", "city": "Bolingbrook", "state": "IL", "zip": "60440", "latitude": 41.72135, "longitude": -88.03577, "storeHours": "Open 24 hrs a day, 364 days a year.", "storeName": "755 E Boughton Rd, Bolingbrook, IL 60440", "milesFrom": 142.057233244386, "storeShortName": "Boughton Rd", "storePhoneNumber": "6307835300", "pharmacyPhone": "6307835310", "isPharmacy": false, "pharmacyHours": [{"dayHours": "9:00 AM - 9:00 PM", "dayOfTheWeek": "M-F"}, {"dayHours": "9:00 AM - 7:00 PM", "dayOfTheWeek": "Sat"}, {"dayHours": "10:00 AM - 6:00 PM", "dayOfTheWeek": "Sun"}]}, {"IsMobileShoppingEnabled": "N", "IsMobilePaymentEnabled": "N", "unitid": 139, "streetAddress": "6260 W McGalliard Rd", "city": "Muncie", "state": "IN", "zip": "47304", "latitude": 40.22133, "longitude": -85.45887, "storeHours": "Open 24 hrs a day, 364 days a year.", "storeName": "6260 W McGalliard Rd, Muncie, IN 47304", "milesFrom": 142.246180424544, "storeShortName": "Muncie", "storePhoneNumber": "7652817800", "pharmacyPhone": "7652817810", "isPharmacy": false, "pharmacyHours": [{"dayHours": "9:00 AM - 9:00 PM", "dayOfTheWeek": "M-F"}, {"dayHours": "9:00 AM - 7:00 PM", "dayOfTheWeek": "Sat"}, {"dayHours": "10:00 AM - 6:00 PM", "dayOfTheWeek": "Sun"}]}, {"IsMobileShoppingEnabled": "N", "IsMobilePaymentEnabled": "N", "unitid": 198, "streetAddress": "130 S Gary Ave", "city": "Bloomingdale", "state": "IL", "zip": "60108-2243", "latitude": 41.95529, "longitude": -88.12283, "storeHours": "Open 24 hrs a day, 364 days a year.", "storeName": "130 S Gary Ave, Bloomingdale, IL 60108-2243", "milesFrom": 142.623960929581, "storeShortName": "Bloomingdale", "storePhoneNumber": "6303517600", "pharmacyPhone": "6303517610", "isPharmacy": false, "pharmacyHours": [{"dayHours": "9:00 AM - 9:00 PM", "dayOfTheWeek": "M-F"}, {"dayHours": "9:00 AM - 7:00 PM", "dayOfTheWeek": "Sat"}, {"dayHours": "10:00 AM - 6:00 PM", "dayOfTheWeek": "Sun"}]}, {"IsMobileShoppingEnabled": "N", "IsMobilePaymentEnabled": "N", "unitid": 279, "streetAddress": "15 Caberfae Hwy", "city": "Manistee", "state": "MI", "zip": "49660", "latitude": 44.2669, "longitude": -86.29521, "storeHours": "Open 24 hrs a day, 364 days a year.", "storeName": "15 Caberfae Hwy, Manistee, MI 49660", "milesFrom": 145.154353752184, "storeShortName": "Manistee", "storePhoneNumber": "2318875200", "pharmacyPhone": "2318875210", "isPharmacy": false, "pharmacyHours": [{"dayHours": "9:00 AM - 9:00 PM", "dayOfTheWeek": "M-F"}, {"dayHours": "9:00 AM - 7:00 PM", "dayOfTheWeek": "Sat"}, {"dayHours": "10:00 AM - 6:00 PM", "dayOfTheWeek": "Sun"}]}, {"IsMobileShoppingEnabled": "N", "IsMobilePaymentEnabled": "N", "unitid": 169, "streetAddress": "225 N Weber Rd", "city": "Bolingbrook", "state": "IL", "zip": "60440", "latitude": 41.70102, "longitude": -88.12755, "storeHours": "Open 24 hrs a day, 364 days a year.", "storeName": "225 N Weber Rd, Bolingbrook, IL 60440", "milesFrom": 146.749874519266, "storeShortName": "Bolingbrook", "storePhoneNumber": "6306796500", "pharmacyPhone": "6306796510", "isPharmacy": false, "pharmacyHours": [{"dayHours": "9:00 AM - 9:00 PM", "dayOfTheWeek": "M-F"}, {"dayHours": "9:00 AM - 7:00 PM", "dayOfTheWeek": "Sat"}, {"dayHours": "10:00 AM - 6:00 PM", "dayOfTheWeek": "Sun"}]}, {"IsMobileShoppingEnabled": "N", "IsMobilePaymentEnabled": "N", "unitid": 277, "streetAddress": "11111 W. Burleigh", "city": "Wauwatosa", "state": "WI", "zip": "53222", "latitude": 43.07337, "longitude": -88.05079, "storeHours": "Open 6:00 am - 11:00 pm Daily", "storeName": "11111 W. Burleigh, Wauwatosa, WI 53222", "milesFrom": 147.150112076204, "storeShortName": "Wauwatosa", "storePhoneNumber": "4142900900", "pharmacyPhone": "4142900910", "isPharmacy": false, "pharmacyHours": [{"dayHours": "9:00 AM - 9:00 PM", "dayOfTheWeek": "M-F"}, {"dayHours": "9:00 AM - 7:00 PM", "dayOfTheWeek": "Sat"}, {"dayHours": "10:00 AM - 6:00 PM", "dayOfTheWeek": "Sun"}]}, {"IsMobileShoppingEnabled": "N", "IsMobilePaymentEnabled": "N", "unitid": 274, "streetAddress": "1600 N. Port Washington Road", "city": "Grafton", "state": "WI", "zip": "53024", "latitude": 43.31421, "longitude": -87.92189, "storeHours": "Open 24 hrs a day, 364 days a year.", "storeName": "1600 N. Port Washington Road, Grafton, WI 53024", "milesFrom": 147.854509576395, "storeShortName": "Grafton", "storePhoneNumber": "2622042800", "pharmacyPhone": "2622042810", "isPharmacy": false, "pharmacyHours": [{"dayHours": "9:00 AM - 9:00 PM", "dayOfTheWeek": "M-F"}, {"dayHours": "9:00 AM - 7:00 PM", "dayOfTheWeek": "Sat"}, {"dayHours": "10:00 AM - 6:00 PM", "dayOfTheWeek": "Sun"}]}, {"IsMobileShoppingEnabled": "N", "IsMobilePaymentEnabled": "N", "unitid": 218, "streetAddress": "2253 N Richmond Rd", "city": "McHenry", "state": "IL", "zip": "60050", "latitude": 42.35994, "longitude": -88.27085, "storeHours": "Open 24 hrs a day, 364 days a year.", "storeName": "2253 N Richmond Rd, McHenry, IL 60050", "milesFrom": 147.99909329793, "storeShortName": "McHenry", "storePhoneNumber": "8155789700", "pharmacyPhone": "8155789710", "isPharmacy": false, "pharmacyHours": [{"dayHours": "9:00 AM - 9:00 PM", "dayOfTheWeek": "M-F"}, {"dayHours": "9:00 AM - 7:00 PM", "dayOfTheWeek": "Sat"}, {"dayHours": "10:00 AM - 6:00 PM", "dayOfTheWeek": "Sun"}]}, {"IsMobileShoppingEnabled": "N", "IsMobilePaymentEnabled": "N", "unitid": 137, "streetAddress": "4901 SR 26 E", "city": "Lafayette", "state": "IN", "zip": "47905", "latitude": 40.41483, "longitude": -86.81263, "storeHours": "Open 24 hrs a day, 364 days a year.", "storeName": "4901 SR 26 E, Lafayette, IN 47905", "milesFrom": 148.783479662751, "storeShortName": "Lafayette", "storePhoneNumber": "7654499200", "pharmacyPhone": "7654499210", "isPharmacy": false, "pharmacyHours": [{"dayHours": "9:00 AM - 9:00 PM", "dayOfTheWeek": "M-F"}, {"dayHours": "9:00 AM - 7:00 PM", "dayOfTheWeek": "Sat"}, {"dayHours": "10:00 AM - 6:00 PM", "dayOfTheWeek": "Sun"}]}, {"IsMobileShoppingEnabled": "N", "IsMobilePaymentEnabled": "N", "unitid": 301, "streetAddress": "990 N. Kinzie Ave.", "city": "Bradley", "state": "IL", "zip": "60915", "latitude": 41.15906, "longitude": -87.84713, "storeHours": "Open 24 hrs a day, 364 days a year.", "storeName": "990 N. Kinzie Ave., Bradley, IL 60915", "milesFrom": 149.09763130839, "storeShortName": "Bradley", "storePhoneNumber": "7793018200", "pharmacyPhone": "7793018210", "isPharmacy": false, "pharmacyHours": [{"dayHours": "9:00 AM - 9:00 PM", "dayOfTheWeek": "M-F"}, {"dayHours": "9:00 AM - 7:00 PM", "dayOfTheWeek": "Sat"}, {"dayHours": "10:00 AM - 6:00 PM", "dayOfTheWeek": "Sun"}]}, {"IsMobileShoppingEnabled": "N", "IsMobilePaymentEnabled": "N", "unitid": 186, "streetAddress": "2636 US 52", "city": "West Lafayette", "state": "IN", "zip": "47906", "latitude": 40.47001, "longitude": -86.95677, "storeHours": "Open 24 hrs a day, 364 days a year.", "storeName": "2636 US 52, West Lafayette, IN 47906", "milesFrom": 149.568042334241, "storeShortName": "West Lafayette", "storePhoneNumber": "7656374200", "pharmacyPhone": "7656374210", "isPharmacy": false, "pharmacyHours": [{"dayHours": "9:00 AM - 9:00 PM", "dayOfTheWeek": "M-F"}, {"dayHours": "9:00 AM - 7:00 PM", "dayOfTheWeek": "Sat"}, {"dayHours": "10:00 AM - 6:00 PM", "dayOfTheWeek": "Sun"}]}, {"IsMobileShoppingEnabled": "N", "IsMobilePaymentEnabled": "N", "unitid": 178, "streetAddress": "808 N Route 59", "city": "Aurora", "state": "IL", "zip": "60504", "latitude": 41.76793, "longitude": -88.20944, "storeHours": "Open 24 hrs a day, 364 days a year.", "storeName": "808 N Route 59, Aurora, IL 60504", "milesFrom": 149.65368217547, "storeShortName": "Aurora", "storePhoneNumber": "6306926100", "pharmacyPhone": "6306926110", "isPharmacy": false, "pharmacyHours": [{"dayHours": "9:00 AM - 9:00 PM", "dayOfTheWeek": "M-F"}, {"dayHours": "9:00 AM - 7:00 PM", "dayOfTheWeek": "Sat"}, {"dayHours": "10:00 AM - 6:00 PM", "dayOfTheWeek": "Sun"}]}, {"IsMobileShoppingEnabled": "N", "IsMobilePaymentEnabled": "N", "unitid": 142, "streetAddress": "4702 Milan Rd", "city": "Sandusky", "state": "OH", "zip": "44870", "latitude": 41.41174, "longitude": -82.66315, "storeHours": "Open 24 hrs a day, 364 days a year.", "storeName": "4702 Milan Rd, Sandusky, OH 44870", "milesFrom": 151.719783320404, "storeShortName": "Sandusky", "storePhoneNumber": "4196277900", "pharmacyPhone": "4196277910", "isPharmacy": false, "pharmacyHours": [{"dayHours": "8:00 AM - 9:00 PM", "dayOfTheWeek": "M-F"}, {"dayHours": "8:00 AM - 6:00 PM", "dayOfTheWeek": "Sat"}, {"dayHours": "10:00 AM - 6:00 PM", "dayOfTheWeek": "Sun"}]}, {"IsMobileShoppingEnabled": "N", "IsMobilePaymentEnabled": "N", "unitid": 206, "streetAddress": "Randall Rd & Stonegate Rd", "city": "Algonquin", "state": "IL", "zip": "60102", "latitude": 42.17037, "longitude": -88.3385, "storeHours": "Open 24 hrs a day, 364 days a year.", "storeName": "Randall Rd & Stonegate Rd, Algonquin, IL 60102", "milesFrom": 151.746241376218, "storeShortName": "Algonquin", "storePhoneNumber": "8479607800", "pharmacyPhone": "8479607810", "isPharmacy": false, "pharmacyHours": [{"dayHours": "9:00 AM - 9:00 PM", "dayOfTheWeek": "M-F"}, {"dayHours": "9:00 AM - 7:00 PM", "dayOfTheWeek": "Sat"}, {"dayHours": "10:00 AM - 6:00 PM", "dayOfTheWeek": "Sun"}]}, {"IsMobileShoppingEnabled": "N", "IsMobilePaymentEnabled": "N", "unitid": 214, "streetAddress": "13521 South Route 59", "city": "Plainfield", "state": "IL", "zip": "60544", "latitude": 41.635, "longitude": -88.19971, "storeHours": "Open 24 hrs a day, 364 days a year.", "storeName": "13521 South Route 59, Plainfield, IL 60544", "milesFrom": 151.869671524168, "storeShortName": "Plainfield", "storePhoneNumber": "8152678000", "pharmacyPhone": "8152678010", "isPharmacy": false, "pharmacyHours": [{"dayHours": "9:00 AM - 9:00 PM", "dayOfTheWeek": "M-F"}, {"dayHours": "9:00 AM - 7:00 PM", "dayOfTheWeek": "Sat"}, {"dayHours": "10:00 AM - 6:00 PM", "dayOfTheWeek": "Sun"}]}, {"IsMobileShoppingEnabled": "N", "IsMobilePaymentEnabled": "N", "unitid": 229, "streetAddress": "205 S Range Rd", "city": "Marysville", "state": "MI", "zip": "48040", "latitude": 42.90889, "longitude": -82.49725, "storeHours": "Open 24 hrs a day, 364 days a year.", "storeName": "205 S Range Rd, Marysville, MI 48040", "milesFrom": 152.66720311682, "storeShortName": "Marysville", "storePhoneNumber": "8103889600", "pharmacyPhone": "8103889610", "isPharmacy": false, "pharmacyHours": [{"dayHours": "8:00 AM - 9:00 PM", "dayOfTheWeek": "M-F"}, {"dayHours": "8:00 AM - 6:00 PM", "dayOfTheWeek": "Sat"}, {"dayHours": "10:00 AM - 6:00 PM", "dayOfTheWeek": "Sun"}]}, {"IsMobileShoppingEnabled": "N", "IsMobilePaymentEnabled": "N", "unitid": 183, "streetAddress": "Randall Rd & College Gree", "city": "Elgin", "state": "IL", "zip": "60123", "latitude": 42.01198, "longitude": -88.33384, "storeHours": "Open 24 hrs a day, 364 days a year.", "storeName": "Randall Rd & College Gree, Elgin, IL 60123", "milesFrom": 152.878801473354, "storeShortName": "Elgin", "storePhoneNumber": "8477176500", "pharmacyPhone": "8477176510", "isPharmacy": false, "pharmacyHours": [{"dayHours": "9:00 AM - 9:00 PM", "dayOfTheWeek": "M-F"}, {"dayHours": "9:00 AM - 7:00 PM", "dayOfTheWeek": "Sat"}, {"dayHours": "10:00 AM - 6:00 PM", "dayOfTheWeek": "Sun"}]}, {"IsMobileShoppingEnabled": "N", "IsMobilePaymentEnabled": "N", "unitid": 276, "streetAddress": "801 E Sunset Dr", "city": "Waukesha", "state": "WI", "zip": "53189", "latitude": 42.98615, "longitude": -88.21944, "storeHours": "Open 24 hrs a day, 364 days a year.", "storeName": "801 E Sunset Dr, Waukesha, WI 53189", "milesFrom": 152.963991341509, "storeShortName": "Waukesha", "storePhoneNumber": "2628996000", "pharmacyPhone": "2628996010", "isPharmacy": false, "pharmacyHours": [{"dayHours": "9:00 AM - 9:00 PM", "dayOfTheWeek": "M-F"}, {"dayHours": "9:00 AM - 7:00 PM", "dayOfTheWeek": "Sat"}, {"dayHours": "12:00 AM - 12:00 AM", "dayOfTheWeek": "Sun"}]}, {"IsMobileShoppingEnabled": "N", "IsMobilePaymentEnabled": "N", "unitid": 182, "streetAddress": "855 S Randall Rd", "city": "St. Charles", "state": "IL", "zip": "60174", "latitude": 41.90089, "longitude": -88.34369, "storeHours": "Open 24 hrs a day, 364 days a year.", "storeName": "855 S Randall Rd, St. Charles, IL 60174", "milesFrom": 154.299453360083, "storeShortName": "St Charles", "storePhoneNumber": "6307627200", "pharmacyPhone": "6307627210", "isPharmacy": false, "pharmacyHours": [{"dayHours": "9:00 AM - 9:00 PM", "dayOfTheWeek": "M-F"}, {"dayHours": "9:00 AM - 7:00 PM", "dayOfTheWeek": "Sat"}, {"dayHours": "10:00 AM - 6:00 PM", "dayOfTheWeek": "Sun"}]}, {"IsMobileShoppingEnabled": "N", "IsMobilePaymentEnabled": "N", "unitid": 136, "streetAddress": "6610 Scatterfield Rd", "city": "Anderson", "state": "IN", "zip": "46013", "latitude": 40.04904, "longitude": -85.64855, "storeHours": "Open 24 hrs a day, 364 days a year.", "storeName": "6610 Scatterfield Rd, Anderson, IN 46013", "milesFrom": 154.680290249804, "storeShortName": "Anderson", "storePhoneNumber": "7656835200", "pharmacyPhone": "7656835210", "isPharmacy": false, "pharmacyHours": [{"dayHours": "9:00 AM - 9:00 PM", "dayOfTheWeek": "M-F"}, {"dayHours": "9:00 AM - 7:00 PM", "dayOfTheWeek": "Sat"}, {"dayHours": "10:00 AM - 6:00 PM", "dayOfTheWeek": "Sun"}]}, {"IsMobileShoppingEnabled": "N", "IsMobilePaymentEnabled": "N", "unitid": 275, "streetAddress": "N51 W 24953 Lisbon Rd", "city": "Pewaukee", "state": "WI", "zip": "53072", "latitude": 43.11028, "longitude": -88.24267, "storeHours": "Open 24 hrs a day, 364 days a year.", "storeName": "N51 W 24953 Lisbon Rd, Pewaukee, WI 53072", "milesFrom": 156.043020241067, "storeShortName": "Sussex", "storePhoneNumber": "2629322500", "pharmacyPhone": "2629322510", "isPharmacy": false, "pharmacyHours": [{"dayHours": "9:00 AM - 9:00 PM", "dayOfTheWeek": "M-F"}, {"dayHours": "9:00 AM - 7:00 PM", "dayOfTheWeek": "Sat"}, {"dayHours": "10:00 AM - 6:00 PM", "dayOfTheWeek": "Sun"}]}, {"IsMobileShoppingEnabled": "N", "IsMobilePaymentEnabled": "N", "unitid": 239, "streetAddress": "2700 Route 34", "city": "Oswego", "state": "IL", "zip": "60543", "latitude": 41.69953, "longitude": -88.3105, "storeHours": "Open 24 hrs a day, 364 days a year.", "storeName": "2700 Route 34, Oswego, IL 60543", "milesFrom": 156.073206037554, "storeShortName": "Oswego", "storePhoneNumber": "6306365000", "pharmacyPhone": "6306365010", "isPharmacy": false, "pharmacyHours": [{"dayHours": "9:00 AM - 9:00 PM", "dayOfTheWeek": "M-F"}, {"dayHours": "9:00 AM - 7:00 PM", "dayOfTheWeek": "Sat"}, {"dayHours": "10:00 AM - 6:00 PM", "dayOfTheWeek": "Sun"}]}, {"IsMobileShoppingEnabled": "N", "IsMobilePaymentEnabled": "N", "unitid": 163, "streetAddress": "4775 24th Ave", "city": "Fort Gratiot Twp", "state": "MI", "zip": "48059", "latitude": 43.04652, "longitude": -82.46068, "storeHours": "Open 24 hrs a day, 364 days a year.", "storeName": "4775 24th Ave, Fort Gratiot Twp, MI 48059", "milesFrom": 157.364963755574, "storeShortName": "Port Huron", "storePhoneNumber": "8103852100", "pharmacyPhone": "8103852110", "isPharmacy": false, "pharmacyHours": [{"dayHours": "8:00 AM - 9:00 PM", "dayOfTheWeek": "M-F"}, {"dayHours": "9:00 AM - 7:00 PM", "dayOfTheWeek": "Sat"}, {"dayHours": "10:00 AM - 6:00 PM", "dayOfTheWeek": "Sun"}]}, {"IsMobileShoppingEnabled": "N", "IsMobilePaymentEnabled": "N", "unitid": 230, "streetAddress": "17000 Mercantile Blvd.", "city": "Noblesville", "state": "IN", "zip": "46060-3941", "latitude": 40.03536, "longitude": -85.99134, "storeHours": "Open 24 hrs a day, 364 days a year.", "storeName": "17000 Mercantile Blvd., Noblesville, IN 46060-3941", "milesFrom": 157.633607325757, "storeShortName": "Noblesville", "storePhoneNumber": "3177747800", "pharmacyPhone": "3177747710", "isPharmacy": false, "pharmacyHours": [{"dayHours": "9:00 AM - 9:00 PM", "dayOfTheWeek": "M-F"}, {"dayHours": "9:00 AM - 7:00 PM", "dayOfTheWeek": "Sat"}, {"dayHours": "10:00 AM - 6:00 PM", "dayOfTheWeek": "Sun"}]}, {"IsMobileShoppingEnabled": "N", "IsMobilePaymentEnabled": "N", "unitid": 299, "streetAddress": "2180 S. Main Street", "city": "West Bend", "state": "WI", "zip": "53095", "latitude": 43.39397, "longitude": -88.1845, "storeHours": "Open 24 hrs a day, 364 days a year.", "storeName": "2180 S. Main Street, West Bend, WI 53095", "milesFrom": 161.875471705223, "storeShortName": "West Bend", "storePhoneNumber": "2623348500", "pharmacyPhone": "2623348510", "isPharmacy": false, "pharmacyHours": [{"dayHours": "9:00 AM - 9:00 PM", "dayOfTheWeek": "M-F"}, {"dayHours": "9:00 AM - 7:00 PM", "dayOfTheWeek": "Sat"}, {"dayHours": "10:00 AM - 6:00 PM", "dayOfTheWeek": "Sun"}]}, {"IsMobileShoppingEnabled": "N", "IsMobilePaymentEnabled": "N", "unitid": 112, "streetAddress": "1900 W Main St", "city": "Troy", "state": "OH", "zip": "45373", "latitude": 40.05454, "longitude": -84.24344, "storeHours": "Open 24 hrs a day, 364 days a year.", "storeName": "1900 W Main St, Troy, OH 45373", "milesFrom": 164.556763003364, "storeShortName": "Troy", "storePhoneNumber": "9373399930", "pharmacyPhone": "9373320510", "isPharmacy": false, "pharmacyHours": [{"dayHours": "9:00 AM - 9:00 PM", "dayOfTheWeek": "M-F"}, {"dayHours": "9:00 AM - 7:00 PM", "dayOfTheWeek": "Sat"}, {"dayHours": "10:00 AM - 6:00 PM", "dayOfTheWeek": "Sun"}]}, {"IsMobileShoppingEnabled": "N", "IsMobilePaymentEnabled": "N", "unitid": 130, "streetAddress": "1424 W Carmel Dr", "city": "Carmel", "state": "IN", "zip": "46032", "latitude": 39.97357, "longitude": -86.15256, "storeHours": "Open 24 hrs a day, 364 days a year.", "storeName": "1424 W Carmel Dr, Carmel, IN 46032", "milesFrom": 164.988363855772, "storeShortName": "Carmel", "storePhoneNumber": "3175738300", "pharmacyPhone": "3175738310", "isPharmacy": false, "pharmacyHours": [{"dayHours": "9:00 AM - 9:00 PM", "dayOfTheWeek": "M-F"}, {"dayHours": "9:00 AM - 7:00 PM", "dayOfTheWeek": "Sat"}, {"dayHours": "10:00 AM - 6:00 PM", "dayOfTheWeek": "Sun"}]}, {"IsMobileShoppingEnabled": "N", "IsMobilePaymentEnabled": "N", "unitid": 154, "streetAddress": "8375 E 96th St", "city": "Indianapolis", "state": "IN", "zip": "46256", "latitude": 39.92577, "longitude": -86.02033, "storeHours": "Open 24 hrs a day, 364 days a year.", "storeName": "8375 E 96th St, Indianapolis, IN 46256", "milesFrom": 165.973339373056, "storeShortName": "E 96th St", "storePhoneNumber": "3175852400", "pharmacyPhone": "3175852410", "isPharmacy": false, "pharmacyHours": [{"dayHours": "9:00 AM - 9:00 PM", "dayOfTheWeek": "M-F"}, {"dayHours": "9:00 AM - 7:00 PM", "dayOfTheWeek": "Sat"}, {"dayHours": "10:00 AM - 6:00 PM", "dayOfTheWeek": "Sun"}]}, {"IsMobileShoppingEnabled": "N", "IsMobilePaymentEnabled": "N", "unitid": 111, "streetAddress": "2153 Marion-Mt Gilead Rd", "city": "Marion", "state": "OH", "zip": "43302", "latitude": 40.57876, "longitude": -83.07206, "storeHours": "Open 24 hrs a day, 364 days a year.", "storeName": "2153 Marion-Mt Gilead Rd, Marion, OH 43302", "milesFrom": 166.937725466069, "storeShortName": "Marion", "storePhoneNumber": "7403896710", "pharmacyPhone": "7403890510", "isPharmacy": false, "pharmacyHours": [{"dayHours": "8:00 AM - 9:00 PM", "dayOfTheWeek": "M-F"}, {"dayHours": "8:00 AM - 6:00 PM", "dayOfTheWeek": "Sat"}, {"dayHours": "10:00 AM - 6:00 PM", "dayOfTheWeek": "Sun"}]}, {"IsMobileShoppingEnabled": "N", "IsMobilePaymentEnabled": "N", "unitid": 296, "streetAddress": "6939 W. Broadway", "city": "McCordsville", "state": "IN", "zip": "46055", "latitude": 39.88541, "longitude": -85.93526, "storeHours": "Open 24 hrs a day, 364 days a year.", "storeName": "6939 W. Broadway, McCordsville, IN 46055", "milesFrom": 167.769374345093, "storeShortName": "McCordsville", "storePhoneNumber": "3175100300", "pharmacyPhone": "3175100310", "isPharmacy": false, "pharmacyHours": [{"dayHours": "9:00 AM - 9:00 PM", "dayOfTheWeek": "M-F"}, {"dayHours": "9:00 AM - 7:00 PM", "dayOfTheWeek": "Sat"}, {"dayHours": "10:00 AM - 6:00 PM", "dayOfTheWeek": "Sun"}]}, {"IsMobileShoppingEnabled": "N", "IsMobilePaymentEnabled": "N", "unitid": 155, "streetAddress": "2507 Chester Blvd", "city": "Richmond", "state": "IN", "zip": "47374", "latitude": 39.86828, "longitude": -84.88532, "storeHours": "Open 24 hrs a day, 364 days a year.", "storeName": "2507 Chester Blvd, Richmond, IN 47374", "milesFrom": 168.373943584996, "storeShortName": "Richmond", "storePhoneNumber": "7659394400", "pharmacyPhone": "7659394410", "isPharmacy": false, "pharmacyHours": [{"dayHours": "9:00 AM - 9:00 PM", "dayOfTheWeek": "M-F"}, {"dayHours": "9:00 AM - 7:00 PM", "dayOfTheWeek": "Sat"}, {"dayHours": "10:00 AM - 6:00 PM", "dayOfTheWeek": "Sun"}]}, {"IsMobileShoppingEnabled": "N", "IsMobilePaymentEnabled": "N", "unitid": 152, "streetAddress": "6650 Whitestown Pkwy", "city": "Whitestown", "state": "IN", "zip": "46077", "latitude": 39.95189, "longitude": -86.34244, "storeHours": "Open 24 hrs a day, 364 days a year.", "storeName": "6650 Whitestown Pkwy, Whitestown, IN 46077", "milesFrom": 168.53033566458, "storeShortName": "Whitestown/Zionsville", "storePhoneNumber": "3177329200", "pharmacyPhone": "3177329210", "isPharmacy": false, "pharmacyHours": [{"dayHours": "9:00 AM - 9:00 PM", "dayOfTheWeek": "M-F"}, {"dayHours": "9:00 AM - 7:00 PM", "dayOfTheWeek": "Sat"}, {"dayHours": "10:00 AM - 6:00 PM", "dayOfTheWeek": "Sun"}]}, {"IsMobileShoppingEnabled": "N", "IsMobilePaymentEnabled": "N", "unitid": 33, "streetAddress": "3955 US 31 S", "city": "Traverse City", "state": "MI", "zip": "49684", "latitude": 44.74308, "longitude": -85.64456, "storeHours": "Open 24 hrs a day, 364 days a year.", "storeName": "3955 US 31 S, Traverse City, MI 49684", "milesFrom": 170.986420041401, "storeShortName": "Traverse City", "storePhoneNumber": "2319411543", "pharmacyPhone": "2319331810", "isPharmacy": false, "pharmacyHours": [{"dayHours": "8:00 AM - 9:00 PM", "dayOfTheWeek": "M-F"}, {"dayHours": "9:00 AM - 7:00 PM", "dayOfTheWeek": "Sat"}, {"dayHours": "10:00 AM - 6:00 PM", "dayOfTheWeek": "Sun"}]}, {"IsMobileShoppingEnabled": "N", "IsMobilePaymentEnabled": "N", "unitid": 290, "streetAddress": "5550 N Keystone Ave", "city": "Indianapolis", "state": "IN", "zip": "46220", "latitude": 39.85345, "longitude": -86.12428, "storeHours": "Open 24 hrs a day, 364 days a year.", "storeName": "5550 N Keystone Ave, Indianapolis, IN 46220", "milesFrom": 171.888955991795, "storeShortName": "Keystone Ave", "storePhoneNumber": "3176102200", "pharmacyPhone": "3176102210", "isPharmacy": false, "pharmacyHours": [{"dayHours": "9:00 AM - 9:00 PM", "dayOfTheWeek": "M-F"}, {"dayHours": "9:00 PM - 7:00 PM", "dayOfTheWeek": "Sat"}, {"dayHours": "10:00 AM - 6:00 PM", "dayOfTheWeek": "Sun"}]}, {"IsMobileShoppingEnabled": "N", "IsMobilePaymentEnabled": "N", "unitid": 236, "streetAddress": "4900 M 72 E", "city": "Williamsburg", "state": "MI", "zip": "49690", "latitude": 44.77069, "longitude": -85.47693, "storeHours": "Open 24 hrs a day, 364 days a year.", "storeName": "4900 M 72 E, Williamsburg, MI 49690", "milesFrom": 172.471499135122, "storeShortName": "Acme Twp", "storePhoneNumber": "2315349800", "pharmacyPhone": "2315349810", "isPharmacy": false, "pharmacyHours": [{"dayHours": "8:00 AM - 9:00 PM", "dayOfTheWeek": "M-F"}, {"dayHours": "9:00 AM - 7:00 PM", "dayOfTheWeek": "Sat"}, {"dayHours": "10:00 AM - 6:00 PM", "dayOfTheWeek": "Sun"}]}, {"IsMobileShoppingEnabled": "N", "IsMobilePaymentEnabled": "N", "unitid": 129, "streetAddress": "5349 Pike Plaza Rd", "city": "Indianapolis", "state": "IN", "zip": "46254", "latitude": 39.82625, "longitude": -86.25173, "storeHours": "Open 24 hrs a day, 364 days a year.", "storeName": "5349 Pike Plaza Rd, Indianapolis, IN 46254", "milesFrom": 175.383283640266, "storeShortName": "Pike Plaza Rd", "storePhoneNumber": "3173872400", "pharmacyPhone": "3173872410", "isPharmacy": false, "pharmacyHours": [{"dayHours": "9:00 AM - 9:00 PM", "dayOfTheWeek": "M-F"}, {"dayHours": "9:00 AM - 7:00 PM", "dayOfTheWeek": "Sat"}, {"dayHours": "10:00 AM - 6:00 PM", "dayOfTheWeek": "Sun"}]}, {"IsMobileShoppingEnabled": "N", "IsMobilePaymentEnabled": "N", "unitid": 131, "streetAddress": "11351 E Washington St", "city": "Indianapolis", "state": "IN", "zip": "46229", "latitude": 39.77427, "longitude": -85.96367, "storeHours": "Open 24 hrs a day, 364 days a year.", "storeName": "11351 E Washington St, Indianapolis, IN 46229", "milesFrom": 175.537193876361, "storeShortName": "E Washington St", "storePhoneNumber": "3178946700", "pharmacyPhone": "3178946710", "isPharmacy": false, "pharmacyHours": [{"dayHours": "9:00 AM - 9:00 PM", "dayOfTheWeek": "M-F"}, {"dayHours": "9:00 AM - 7:00 PM", "dayOfTheWeek": "Sat"}, {"dayHours": "10:00 AM - 6:00 PM", "dayOfTheWeek": "Sun"}]}, {"IsMobileShoppingEnabled": "N", "IsMobilePaymentEnabled": "N", "unitid": 235, "streetAddress": "930 Coleman\u2019s Crossing Blvd", "city": "Marysville", "state": "OH", "zip": "43040-2543", "latitude": 40.22829, "longitude": -83.337, "storeHours": "Open 24 hrs a day, 364 days a year.", "storeName": "930 Coleman\u2019s Crossing Blvd, Marysville, OH 43040-2543", "milesFrom": 176.732352755704, "storeShortName": "Marysville", "storePhoneNumber": "9375536100", "pharmacyPhone": "9375536110", "isPharmacy": false, "pharmacyHours": [{"dayHours": "8:00 AM - 9:00 PM", "dayOfTheWeek": "M-F"}, {"dayHours": "9:00 AM - 7:00 PM", "dayOfTheWeek": "Sat"}, {"dayHours": "10:00 AM - 6:00 PM", "dayOfTheWeek": "Sun"}]}, {"IsMobileShoppingEnabled": "N", "IsMobilePaymentEnabled": "N", "unitid": 106, "streetAddress": "9200 N Main", "city": "Englewood", "state": "OH", "zip": "45415", "latitude": 39.85801, "longitude": -84.27507, "storeHours": "Open 24 hrs a day, 364 days a year.", "storeName": "9200 N Main, Englewood, OH 45415", "milesFrom": 176.775601819013, "storeShortName": "Englewood", "storePhoneNumber": "9378361017", "pharmacyPhone": "9378325110", "isPharmacy": false, "pharmacyHours": [{"dayHours": "9:00 AM - 9:00 PM", "dayOfTheWeek": "M-F"}, {"dayHours": "9:00 AM - 7:00 PM", "dayOfTheWeek": "Sat"}, {"dayHours": "10:00 AM - 6:00 PM", "dayOfTheWeek": "Sun"}]}, {"IsMobileShoppingEnabled": "N", "IsMobilePaymentEnabled": "N", "unitid": 126, "streetAddress": "1355 N Lexington-Springmi", "city": "Mansfield", "state": "OH", "zip": "44906", "latitude": 40.78972, "longitude": -82.59336, "storeHours": "Open 24 hrs a day, 364 days a year.", "storeName": "1355 N Lexington-Springmi, Mansfield, OH 44906", "milesFrom": 176.874286796577, "storeShortName": "Ontario", "storePhoneNumber": "4197478300", "pharmacyPhone": "4197478310", "isPharmacy": false, "pharmacyHours": [{"dayHours": "9:00 AM - 9:00 PM", "dayOfTheWeek": "M-F"}, {"dayHours": "9:00 AM - 7:00 PM", "dayOfTheWeek": "Sat"}, {"dayHours": "10:00 AM - 6:00 PM", "dayOfTheWeek": "Sun"}]}, {"IsMobileShoppingEnabled": "N", "IsMobilePaymentEnabled": "N", "unitid": 241, "streetAddress": "7150 Executive Blvd.", "city": "Huber Heights", "state": "OH", "zip": "45424", "latitude": 39.86892, "longitude": -84.10329, "storeHours": "Open 24 hrs a day, 364 days a year.", "storeName": "7150 Executive Blvd., Huber Heights, OH 45424", "milesFrom": 179.143856691921, "storeShortName": "Huber Heights", "storePhoneNumber": "9372374600", "pharmacyPhone": "9372374610", "isPharmacy": false, "pharmacyHours": [{"dayHours": "9:00 AM - 9:00 PM", "dayOfTheWeek": "M-F"}, {"dayHours": "9:00 AM - 7:00 PM", "dayOfTheWeek": "Sat"}, {"dayHours": "10:00 AM - 6:00 PM", "dayOfTheWeek": "Sun"}]}, {"IsMobileShoppingEnabled": "N", "IsMobilePaymentEnabled": "N", "unitid": 66, "streetAddress": "1500 Hillcrest Ave", "city": "Springfield", "state": "OH", "zip": "45504", "latitude": 39.94285, "longitude": -83.8301, "storeHours": "Open 24 hrs a day, 364 days a year.", "storeName": "1500 Hillcrest Ave, Springfield, OH 45504", "milesFrom": 180.306270074453, "storeShortName": "Springfield", "storePhoneNumber": "9373230266", "pharmacyPhone": "9373272010", "isPharmacy": false, "pharmacyHours": [{"dayHours": "9:00 AM - 9:00 PM", "dayOfTheWeek": "M-F"}, {"dayHours": "9:00 AM - 7:00 PM", "dayOfTheWeek": "Sat"}, {"dayHours": "10:00 AM - 6:00 PM", "dayOfTheWeek": "Sun"}]}, {"IsMobileShoppingEnabled": "N", "IsMobilePaymentEnabled": "N", "unitid": 133, "streetAddress": "10841 E US 36", "city": "Avon", "state": "IN", "zip": "46123", "latitude": 39.76116, "longitude": -86.32976, "storeHours": "Open 24 hrs a day, 364 days a year.", "storeName": "10841 E US 36, Avon, IN 46123", "milesFrom": 180.744963250256, "storeShortName": "Rockville Rd", "storePhoneNumber": "3172736000", "pharmacyPhone": "3172736010", "isPharmacy": false, "pharmacyHours": [{"dayHours": "9:00 AM - 9:00 PM", "dayOfTheWeek": "M-F"}, {"dayHours": "9:00 AM - 7:00 PM", "dayOfTheWeek": "Sat"}, {"dayHours": "10:00 AM - 6:00 PM", "dayOfTheWeek": "Sun"}]}, {"IsMobileShoppingEnabled": "N", "IsMobilePaymentEnabled": "N", "unitid": 249, "streetAddress": "1380 Sunbury Rd.", "city": "Delaware", "state": "OH", "zip": "43015", "latitude": 40.29026, "longitude": -83.03174, "storeHours": "Open 24 hrs a day, 364 days a year.", "storeName": "1380 Sunbury Rd., Delaware, OH 43015", "milesFrom": 183.305381353519, "storeShortName": "Delaware", "storePhoneNumber": "7403681400", "pharmacyPhone": "7403685910", "isPharmacy": false, "pharmacyHours": [{"dayHours": "9:00 AM - 9:00 PM", "dayOfTheWeek": "M-F"}, {"dayHours": "9:00 AM - 7:00 PM", "dayOfTheWeek": "Sat"}, {"dayHours": "10:00 AM - 6:00 PM", "dayOfTheWeek": "Sun"}]}, {"IsMobileShoppingEnabled": "N", "IsMobilePaymentEnabled": "N", "unitid": 134, "streetAddress": "5325 E Southport Rd", "city": "Indianapolis", "state": "IN", "zip": "46237", "latitude": 39.66353, "longitude": -86.07737, "storeHours": "Open 24 hrs a day, 364 days a year.", "storeName": "5325 E Southport Rd, Indianapolis, IN 46237", "milesFrom": 184.173654517465, "storeShortName": "Southport Rd", "storePhoneNumber": "3178592200", "pharmacyPhone": "3178592210", "isPharmacy": false, "pharmacyHours": [{"dayHours": "9:00 AM - 9:00 PM", "dayOfTheWeek": "M-F"}, {"dayHours": "9:00 AM - 7:00 PM", "dayOfTheWeek": "Sat"}, {"dayHours": "10:00 AM - 6:00 PM", "dayOfTheWeek": "Sun"}]}, {"IsMobileShoppingEnabled": "N", "IsMobilePaymentEnabled": "N", "unitid": 192, "streetAddress": "2013 McFarland Rd", "city": "Rockford", "state": "IL", "zip": "61107", "latitude": 42.29278, "longitude": -88.97607, "storeHours": "Open 24 hrs a day, 364 days a year.", "storeName": "2013 McFarland Rd, Rockford, IL 61107", "milesFrom": 184.177280023564, "storeShortName": "Rockford", "storePhoneNumber": "8157218600", "pharmacyPhone": "8157218610", "isPharmacy": false, "pharmacyHours": [{"dayHours": "9:00 AM - 9:00 PM", "dayOfTheWeek": "M-F"}, {"dayHours": "9:00 AM - 7:00 PM", "dayOfTheWeek": "Sat"}, {"dayHours": "10:00 AM - 6:00 PM", "dayOfTheWeek": "Sun"}]}, {"IsMobileShoppingEnabled": "N", "IsMobilePaymentEnabled": "N", "unitid": 256, "streetAddress": "400 Dan Jones Rd", "city": "Plainfield", "state": "IN", "zip": "46168", "latitude": 39.7128, "longitude": -86.38364, "storeHours": "Open 24 hrs a day, 364 days a year.", "storeName": "400 Dan Jones Rd, Plainfield, IN 46168", "milesFrom": 184.778609236802, "storeShortName": "Plainfield", "storePhoneNumber": "3172041300", "pharmacyPhone": "3172041310", "isPharmacy": false, "pharmacyHours": [{"dayHours": "9:00 AM - 9:00 PM", "dayOfTheWeek": "M-F"}, {"dayHours": "9:00 AM - 7:00 PM", "dayOfTheWeek": "Sat"}, {"dayHours": "10:00 AM - 6:00 PM", "dayOfTheWeek": "Sun"}]}, {"IsMobileShoppingEnabled": "N", "IsMobilePaymentEnabled": "N", "unitid": 107, "streetAddress": "3822 Colonel Glenn Hwy", "city": "Fairborn", "state": "OH", "zip": "45324", "latitude": 39.77754, "longitude": -84.07365, "storeHours": "Open 24 hrs a day, 364 days a year.", "storeName": "3822 Colonel Glenn Hwy, Fairborn, OH 45324", "milesFrom": 185.647266319969, "storeShortName": "Beavercreek", "storePhoneNumber": "9374267400", "pharmacyPhone": "9374276110", "isPharmacy": false, "pharmacyHours": [{"dayHours": "9:00 AM - 9:00 PM", "dayOfTheWeek": "M-F"}, {"dayHours": "9:00 AM - 7:00 PM", "dayOfTheWeek": "Sat"}, {"dayHours": "10:00 AM - 6:00 PM", "dayOfTheWeek": "Sun"}]}, {"IsMobileShoppingEnabled": "N", "IsMobilePaymentEnabled": "N", "unitid": 281, "streetAddress": "1770 W. Lane Rd", "city": "Machesney Park", "state": "IL", "zip": "61115", "latitude": 42.36832, "longitude": -89.01142, "storeHours": "Open 24 hrs a day, 364 days a year.", "storeName": "1770 W. Lane Rd, Machesney Park, IL 61115", "milesFrom": 185.859885932012, "storeShortName": "Machesney Park", "storePhoneNumber": "8157218700", "pharmacyPhone": "8157218710", "isPharmacy": false, "pharmacyHours": [{"dayHours": "9:00 AM - 9:00 PM", "dayOfTheWeek": "M-F"}, {"dayHours": "9:00 AM - 7:00 PM", "dayOfTheWeek": "Sat"}, {"dayHours": "10:00 AM - 6:00 PM", "dayOfTheWeek": "Sun"}]}, {"IsMobileShoppingEnabled": "N", "IsMobilePaymentEnabled": "N", "unitid": 269, "streetAddress": "3649 N. Vermilion St.", "city": "Danville", "state": "IL", "zip": "61832", "latitude": 40.18768, "longitude": -87.62621, "storeHours": "24 hours", "storeName": "3649 N. Vermilion St., Danville, IL 61832", "milesFrom": 185.883657550291, "storeShortName": "Danville", "storePhoneNumber": "2176557200", "pharmacyPhone": "2176557210", "isPharmacy": false, "pharmacyHours": [{"dayHours": "9:00 AM - 9:00 PM", "dayOfTheWeek": "M-F"}, {"dayHours": "9:00 AM - 7:00 PM", "dayOfTheWeek": "Sat"}, {"dayHours": "10:00 AM - 6:00 PM", "dayOfTheWeek": "Sun"}]}, {"IsMobileShoppingEnabled": "N", "IsMobilePaymentEnabled": "N", "unitid": 204, "streetAddress": "10509 Heartland Blvd", "city": "Camby", "state": "IN", "zip": "46113", "latitude": 39.63775, "longitude": -86.33566, "storeHours": "Open 24 hrs a day, 364 days a year.", "storeName": "10509 Heartland Blvd, Camby, IN 46113", "milesFrom": 188.950539191659, "storeShortName": "Mooresville", "storePhoneNumber": "3178216800", "pharmacyPhone": "3178216810", "isPharmacy": false, "pharmacyHours": [{"dayHours": "9:00 AM - 9:00 PM", "dayOfTheWeek": "M-F"}, {"dayHours": "9:00 AM - 7:00 PM", "dayOfTheWeek": "Sat"}, {"dayHours": "10:00 AM - 6:00 PM", "dayOfTheWeek": "Sun"}]}, {"IsMobileShoppingEnabled": "N", "IsMobilePaymentEnabled": "N", "unitid": 132, "streetAddress": "150 S Marlin Dr", "city": "Greenwood", "state": "IN", "zip": "46142", "latitude": 39.61437, "longitude": -86.16198, "storeHours": "Open 24 hrs a day, 364 days a year.", "storeName": "150 S Marlin Dr, Greenwood, IN 46142", "milesFrom": 189.427892690626, "storeShortName": "Greenwood", "storePhoneNumber": "3178853000", "pharmacyPhone": "3178853010", "isPharmacy": false, "pharmacyHours": [{"dayHours": "9:00 AM - 9:00 PM", "dayOfTheWeek": "M-F"}, {"dayHours": "9:00 AM - 7:00 PM", "dayOfTheWeek": "Sat"}, {"dayHours": "10:00 AM - 6:00 PM", "dayOfTheWeek": "Sun"}]}, {"IsMobileShoppingEnabled": "N", "IsMobilePaymentEnabled": "N", "unitid": 103, "streetAddress": "5858 Springboro Pike", "city": "Dayton", "state": "OH", "zip": "45449", "latitude": 39.67089, "longitude": -84.2187, "storeHours": "Open 24 hrs a day, 364 days a year.", "storeName": "5858 Springboro Pike, Dayton, OH 45449", "milesFrom": 189.704203218201, "storeShortName": "Springboro Pike", "storePhoneNumber": "9374363500", "pharmacyPhone": "9372918910", "isPharmacy": false, "pharmacyHours": [{"dayHours": "9:00 AM - 9:00 PM", "dayOfTheWeek": "M-F"}, {"dayHours": "9:00 AM - 7:00 PM", "dayOfTheWeek": "Sat"}, {"dayHours": "10:00 AM - 6:00 PM", "dayOfTheWeek": "Sun"}]}, {"IsMobileShoppingEnabled": "N", "IsMobilePaymentEnabled": "N", "unitid": 102, "streetAddress": "4075 Wilmington Pike", "city": "Kettering", "state": "OH", "zip": "45440", "latitude": 39.68548, "longitude": -84.13253, "storeHours": "Open 24 hrs a day, 364 days a year.", "storeName": "4075 Wilmington Pike, Kettering, OH 45440", "milesFrom": 190.325832042192, "storeShortName": "Kettering", "storePhoneNumber": "9372985800", "pharmacyPhone": "9372978610", "isPharmacy": false, "pharmacyHours": [{"dayHours": "9:00 AM - 9:00 PM", "dayOfTheWeek": "M-F"}, {"dayHours": "9:00 AM - 7:00 PM", "dayOfTheWeek": "Sat"}, {"dayHours": "10:00 AM - 6:00 PM", "dayOfTheWeek": "Sun"}]}, {"IsMobileShoppingEnabled": "N", "IsMobilePaymentEnabled": "N", "unitid": 143, "streetAddress": "8870 Columbus Pike (US23)", "city": "Lewis Center", "state": "OH", "zip": "43035", "latitude": 40.1611, "longitude": -83.02283, "storeHours": "Open 24 hrs a day, 364 days a year.", "storeName": "8870 Columbus Pike (US23), Lewis Center, OH 43035", "milesFrom": 190.908634749001, "storeShortName": "Lewis Center", "storePhoneNumber": "7405480000", "pharmacyPhone": "7405480010", "isPharmacy": false, "pharmacyHours": [{"dayHours": "8:00 AM - 9:00 PM", "dayOfTheWeek": "M-F"}, {"dayHours": "8:00 AM - 6:00 PM", "dayOfTheWeek": "Sat"}, {"dayHours": "10:00 AM - 6:00 PM", "dayOfTheWeek": "Sun"}]}, {"IsMobileShoppingEnabled": "N", "IsMobilePaymentEnabled": "N", "unitid": 58, "streetAddress": "6175 Sawmill Rd", "city": "Dublin", "state": "OH", "zip": "43017", "latitude": 40.09269, "longitude": -83.09414, "storeHours": "Open 24 hrs a day, 364 days a year.", "storeName": "6175 Sawmill Rd, Dublin, OH 43017", "milesFrom": 192.005260015233, "storeShortName": "Sawmill Rd", "storePhoneNumber": "6147664494", "pharmacyPhone": "6147185710", "isPharmacy": false, "pharmacyHours": [{"dayHours": "8:00 AM - 9:00 PM", "dayOfTheWeek": "M-F"}, {"dayHours": "8:00 AM - 6:00 PM", "dayOfTheWeek": "Sat"}, {"dayHours": "10:00 AM - 6:00 PM", "dayOfTheWeek": "Sun"}]}, {"IsMobileShoppingEnabled": "N", "IsMobilePaymentEnabled": "N", "unitid": 250, "streetAddress": "250 Meijer Drive", "city": "Gaylord", "state": "MI", "zip": "49735", "latitude": 45.02453, "longitude": -84.72334, "storeHours": "Open 24 hrs a day, 364 days a year.", "storeName": "250 Meijer Drive, Gaylord, MI 49735", "milesFrom": 192.736561978509, "storeShortName": "Gaylord", "storePhoneNumber": "9897319600", "pharmacyPhone": "9897319010", "isPharmacy": false, "pharmacyHours": [{"dayHours": "8:00 AM - 9:00 PM", "dayOfTheWeek": "M-F"}, {"dayHours": "9:00 AM - 7:00 PM", "dayOfTheWeek": "Sat"}, {"dayHours": "10:00 AM - 6:00 PM", "dayOfTheWeek": "Sun"}]}, {"IsMobileShoppingEnabled": "N", "IsMobilePaymentEnabled": "N", "unitid": 181, "streetAddress": "100 Polaris Pkwy", "city": "Westerville", "state": "OH", "zip": "43081", "latitude": 40.15069, "longitude": -82.92539, "storeHours": "Open 24 hrs a day, 364 days a year.", "storeName": "100 Polaris Pkwy, Westerville, OH 43081", "milesFrom": 194.505308742736, "storeShortName": "Westerville", "storePhoneNumber": "6148652000", "pharmacyPhone": "6148652010", "isPharmacy": false, "pharmacyHours": [{"dayHours": "8:00 AM - 9:00 PM", "dayOfTheWeek": "M-F"}, {"dayHours": "8:00 AM - 6:00 PM", "dayOfTheWeek": "Sat"}, {"dayHours": "10:00 AM - 6:00 PM", "dayOfTheWeek": "Sun"}]}, {"IsMobileShoppingEnabled": "N", "IsMobilePaymentEnabled": "N", "unitid": 295, "streetAddress": "2390 N. Morton St.", "city": "Franklin", "state": "IN", "zip": "46131", "latitude": 39.50555, "longitude": -86.07333, "storeHours": "Open 24 hrs a day, 364 days a year.", "storeName": "2390 N. Morton St., Franklin, IN 46131", "milesFrom": 194.946217650684, "storeShortName": "Franklin", "storePhoneNumber": "3173469600", "pharmacyPhone": "3173469610", "isPharmacy": false, "pharmacyHours": [{"dayHours": "9:00 AM - 9:00 PM", "dayOfTheWeek": "M-F"}, {"dayHours": "9:00 AM - 7:00 PM", "dayOfTheWeek": "Sat"}, {"dayHours": "10:00 AM - 6:00 PM", "dayOfTheWeek": "Sun"}]}, {"IsMobileShoppingEnabled": "N", "IsMobilePaymentEnabled": "N", "unitid": 104, "streetAddress": "1661 Hilliard Rd", "city": "Columbus", "state": "OH", "zip": "43228", "latitude": 39.98401, "longitude": -83.15434, "storeHours": "Open 24 hrs a day, 364 days a year.", "storeName": "1661 Hilliard Rd, Columbus, OH 43228", "milesFrom": 196.344536800408, "storeShortName": "Hilliard/Rome Rd", "storePhoneNumber": "6147714800", "pharmacyPhone": "6145295110", "isPharmacy": false, "pharmacyHours": [{"dayHours": "8:00 AM - 9:00 PM", "dayOfTheWeek": "M-F"}, {"dayHours": "8:00 AM - 6:00 PM", "dayOfTheWeek": "Sat"}, {"dayHours": "10:00 AM - 6:00 PM", "dayOfTheWeek": "Sun"}]}, {"IsMobileShoppingEnabled": "N", "IsMobilePaymentEnabled": "N", "unitid": 61, "streetAddress": "3651 Towne Blvd", "city": "Franklin", "state": "OH", "zip": "45005", "latitude": 39.49951, "longitude": -84.33152, "storeHours": "Open 24 hrs a day, 364 days a year.", "storeName": "3651 Towne Blvd, Franklin, OH 45005", "milesFrom": 199.610995635938, "storeShortName": "Middletown", "storePhoneNumber": "5134244863", "pharmacyPhone": "5134203910", "isPharmacy": false, "pharmacyHours": [{"dayHours": "9:00 AM - 9:00 PM", "dayOfTheWeek": "M-F"}, {"dayHours": "9:00 AM - 7:00 PM", "dayOfTheWeek": "Sat"}, {"dayHours": "10:00 AM - 6:00 PM", "dayOfTheWeek": "Sun"}]}, {"IsMobileShoppingEnabled": "N", "IsMobilePaymentEnabled": "N", "unitid": 135, "streetAddress": "1560 Main St", "city": "Hamilton", "state": "OH", "zip": "45013", "latitude": 39.43132, "longitude": -84.59694, "storeHours": "Open 24 hrs a day, 364 days a year.", "storeName": "1560 Main St, Hamilton, OH 45013", "milesFrom": 200.789824438722, "storeShortName": "Hamilton-OH", "storePhoneNumber": "5138962600", "pharmacyPhone": "5138962610", "isPharmacy": false, "pharmacyHours": [{"dayHours": "9:00 AM - 9:00 PM", "dayOfTheWeek": "M-F"}, {"dayHours": "9:00 AM - 7:00 PM", "dayOfTheWeek": "Sat"}, {"dayHours": "10:00 AM - 6:00 PM", "dayOfTheWeek": "Sun"}]}, {"IsMobileShoppingEnabled": "N", "IsMobilePaymentEnabled": "N", "unitid": 114, "streetAddress": "5050 N Hamilton Rd", "city": "Columbus", "state": "OH", "zip": "43230", "latitude": 40.06092, "longitude": -82.86012, "storeHours": "Open 24 hrs a day, 364 days a year.", "storeName": "5050 N Hamilton Rd, Columbus, OH 43230", "milesFrom": 201.339389441852, "storeShortName": "N Hamilton Rd", "storePhoneNumber": "6148554900", "pharmacyPhone": "6148554910", "isPharmacy": false, "pharmacyHours": [{"dayHours": "8:00 AM - 9:00 PM", "dayOfTheWeek": "M-F"}, {"dayHours": "8:00 AM - 6:00 PM", "dayOfTheWeek": "Sat"}, {"dayHours": "10:00 AM - 6:00 PM", "dayOfTheWeek": "Sun"}]}, {"IsMobileShoppingEnabled": "N", "IsMobilePaymentEnabled": "N", "unitid": 234, "streetAddress": "2811 London-Groveport Road", "city": "Grove City", "state": "OH", "zip": "43123-9035", "latitude": 39.83666, "longitude": -83.0807, "storeHours": "Open 24 hrs a day, 364 days a year.", "storeName": "2811 London-Groveport Road, Grove City, OH 43123-9035", "milesFrom": 206.48484587161, "storeShortName": "Grove City", "storePhoneNumber": "6148014300", "pharmacyPhone": "6148014310", "isPharmacy": false, "pharmacyHours": [{"dayHours": "8:00 AM - 9:00 PM", "dayOfTheWeek": "M-F"}, {"dayHours": "8:00 AM - 6:00 PM", "dayOfTheWeek": "Sat"}, {"dayHours": "10:00 AM - 6:00 PM", "dayOfTheWeek": "Sun"}]}, {"IsMobileShoppingEnabled": "N", "IsMobilePaymentEnabled": "N", "unitid": 298, "streetAddress": "2015 Shawano Ave", "city": "Green Bay", "state": "WI", "zip": "54303", "latitude": 44.53478, "longitude": -88.07721, "storeHours": "Open 24 hrs a day, 364 days a year.", "storeName": "2015 Shawano Ave, Green Bay, WI 54303", "milesFrom": 206.886813315891, "storeShortName": "Howard", "storePhoneNumber": "9204968100", "pharmacyPhone": "9204968110", "isPharmacy": false, "pharmacyHours": [{"dayHours": "9:00 AM - 9:00 PM", "dayOfTheWeek": "M-F"}, {"dayHours": "9:00 AM - 7:00 PM", "dayOfTheWeek": "Sat"}, {"dayHours": "10:00 AM - 6:00 PM", "dayOfTheWeek": "Sun"}]}, {"IsMobileShoppingEnabled": "N", "IsMobilePaymentEnabled": "N", "unitid": 212, "streetAddress": "8000 E Broad St", "city": "Reynoldsburg", "state": "OH", "zip": "43068", "latitude": 39.98831, "longitude": -82.78815, "storeHours": "Open 24 hrs a day, 364 days a year.", "storeName": "8000 E Broad St, Reynoldsburg, OH 43068", "milesFrom": 207.305683178662, "storeShortName": "E Broad St", "storePhoneNumber": "6143227400", "pharmacyPhone": "6143227410", "isPharmacy": false, "pharmacyHours": [{"dayHours": "8:00 AM - 9:00 PM", "dayOfTheWeek": "M-F"}, {"dayHours": "8:00 AM - 6:00 PM", "dayOfTheWeek": "Sat"}, {"dayHours": "10:00 AM - 6:00 PM", "dayOfTheWeek": "Sun"}]}, {"IsMobileShoppingEnabled": "N", "IsMobilePaymentEnabled": "N", "unitid": 300, "streetAddress": "3801 N. Richmond Street", "city": "Appleton", "state": "WI", "zip": "54913", "latitude": 44.30062, "longitude": -88.41976, "storeHours": "Open 24 hrs a day, 364 days a year.", "storeName": "3801 N. Richmond Street, Appleton, WI 54913", "milesFrom": 207.360345585344, "storeShortName": "Grand Chute", "storePhoneNumber": "9203506200", "pharmacyPhone": "9203506210", "isPharmacy": false, "pharmacyHours": [{"dayHours": "9:00 AM - 9:00 PM", "dayOfTheWeek": "M-F"}, {"dayHours": "9:00 AM - 7:00 PM", "dayOfTheWeek": "Sat"}, {"dayHours": "10:00 AM - 6:00 PM", "dayOfTheWeek": "Sun"}]}, {"IsMobileShoppingEnabled": "N", "IsMobilePaymentEnabled": "N", "unitid": 147, "streetAddress": "7390 Tylersville Rd", "city": "West Chester", "state": "OH", "zip": "45069", "latitude": 39.35742, "longitude": -84.37603, "storeHours": "Open 24 hrs a day, 364 days a year.", "storeName": "7390 Tylersville Rd, West Chester, OH 45069", "milesFrom": 208.469911969196, "storeShortName": "West Chester", "storePhoneNumber": "5137554800", "pharmacyPhone": "5137554810", "isPharmacy": false, "pharmacyHours": [{"dayHours": "9:00 AM - 9:00 PM", "dayOfTheWeek": "M-F"}, {"dayHours": "9:00 AM - 7:00 PM", "dayOfTheWeek": "Sat"}, {"dayHours": "10:00 AM - 6:00 PM", "dayOfTheWeek": "Sun"}]}, {"IsMobileShoppingEnabled": "N", "IsMobilePaymentEnabled": "N", "unitid": 159, "streetAddress": "6325 S Gilmore Rd", "city": "Fairfield", "state": "OH", "zip": "45014", "latitude": 39.30541, "longitude": -84.52717, "storeHours": "Open 24 hrs a day, 364 days a year.", "storeName": "6325 S Gilmore Rd, Fairfield, OH 45014", "milesFrom": 210.133371597517, "storeShortName": "Gilmore Rd", "storePhoneNumber": "5138810100", "pharmacyPhone": "5138810110", "isPharmacy": false, "pharmacyHours": [{"dayHours": "9:00 AM - 9:00 PM", "dayOfTheWeek": "M-F"}, {"dayHours": "9:00 AM - 7:00 PM", "dayOfTheWeek": "Sat"}, {"dayHours": "10:00 AM - 6:00 PM", "dayOfTheWeek": "Sun"}]}, {"IsMobileShoppingEnabled": "N", "IsMobilePaymentEnabled": "N", "unitid": 146, "streetAddress": "2401 N Prospect Ave", "city": "Champaign", "state": "IL", "zip": "61821", "latitude": 40.14513, "longitude": -88.2608, "storeHours": "Open 24 hrs a day, 364 days a year.", "storeName": "2401 N Prospect Ave, Champaign, IL 61821", "milesFrom": 210.331773938995, "storeShortName": "Champaign/Urbana", "storePhoneNumber": "2173534000", "pharmacyPhone": "2173534010", "isPharmacy": false, "pharmacyHours": [{"dayHours": "9:00 AM - 9:00 PM", "dayOfTheWeek": "M-F"}, {"dayHours": "9:00 AM - 7:00 PM", "dayOfTheWeek": "Sat"}, {"dayHours": "10:00 AM - 6:00 PM", "dayOfTheWeek": "Sun"}]}, {"IsMobileShoppingEnabled": "N", "IsMobilePaymentEnabled": "N", "unitid": 247, "streetAddress": "2500 S. Philo Road", "city": "Urbana", "state": "IL", "zip": "61802", "latitude": 40.08612, "longitude": -88.18728, "storeHours": "Open 24 hrs a day, 364 days a year.", "storeName": "2500 S. Philo Road, Urbana, IL 61802", "milesFrom": 210.602311164523, "storeShortName": "Urbana", "storePhoneNumber": "2173655200", "pharmacyPhone": "2173655210", "isPharmacy": false, "pharmacyHours": [{"dayHours": "9:00 AM - 9:00 PM", "dayOfTheWeek": "M-F"}, {"dayHours": "9:00 AM - 7:00 PM", "dayOfTheWeek": "Sat"}, {"dayHours": "10:00 AM - 6:00 PM", "dayOfTheWeek": "Sun"}]}, {"IsMobileShoppingEnabled": "N", "IsMobilePaymentEnabled": "N", "unitid": 240, "streetAddress": "3711 Stonecreek Blvd", "city": "Cincinnati", "state": "OH", "zip": "45251-1457", "latitude": 39.25101, "longitude": -84.60372, "storeHours": "Open 24 hrs a day, 364 days a year.", "storeName": "3711 Stonecreek Blvd, Cincinnati, OH 45251-1457", "milesFrom": 212.74520289569, "storeShortName": "Colerain Twp.", "storePhoneNumber": "5132457500", "pharmacyPhone": "5132457510", "isPharmacy": false, "pharmacyHours": [{"dayHours": "9:00 AM - 9:00 PM", "dayOfTheWeek": "M-F"}, {"dayHours": "9:00 AM - 7:00 PM", "dayOfTheWeek": "Sat"}, {"dayHours": "10:00 AM - 6:00 PM", "dayOfTheWeek": "Sun"}]}, {"IsMobileShoppingEnabled": "N", "IsMobilePaymentEnabled": "N", "unitid": 150, "streetAddress": "3911 W SR 22-3", "city": "Loveland", "state": "OH", "zip": "45140", "latitude": 39.29236, "longitude": -84.29251, "storeHours": "Open 24 hrs a day, 364 days a year.", "storeName": "3911 W SR 22-3, Loveland, OH 45140", "milesFrom": 213.901884683787, "storeShortName": "Fields Ertel Rd", "storePhoneNumber": "5135832100", "pharmacyPhone": "5135832110", "isPharmacy": false, "pharmacyHours": [{"dayHours": "9:00 AM - 9:00 PM", "dayOfTheWeek": "M-F"}, {"dayHours": "9:00 AM - 7:00 PM", "dayOfTheWeek": "Sat"}, {"dayHours": "10:00 AM - 6:00 PM", "dayOfTheWeek": "Sun"}]}, {"IsMobileShoppingEnabled": "N", "IsMobilePaymentEnabled": "N", "unitid": 282, "streetAddress": "1254 M-32 W", "city": "Alpena", "state": "MI", "zip": "49707", "latitude": 45.05882, "longitude": -83.47492, "storeHours": "Open 24 hrs a day, 364 days a year.", "storeName": "1254 M-32 W, Alpena, MI 49707", "milesFrom": 214.467142442484, "storeShortName": "Alpena", "storePhoneNumber": "9898846100", "pharmacyPhone": "9898846110", "isPharmacy": false, "pharmacyHours": [{"dayHours": "9:00 AM - 9:00 PM", "dayOfTheWeek": "M-F"}, {"dayHours": "9:00 AM - 7:00 PM", "dayOfTheWeek": "Sat"}, {"dayHours": "10:00 AM - 6:00 PM", "dayOfTheWeek": "Sun"}]}, {"IsMobileShoppingEnabled": "N", "IsMobilePaymentEnabled": "N", "unitid": 246, "streetAddress": "8300 Meijer Drive", "city": "Canal Winchester", "state": "OH", "zip": "43110", "latitude": 39.84929, "longitude": -82.77719, "storeHours": "Open 24 hrs a day, 364 days a year.", "storeName": "8300 Meijer Drive, Canal Winchester, OH 43110", "milesFrom": 215.61148688421, "storeShortName": "Canal Winchester", "storePhoneNumber": "6149207200", "pharmacyPhone": "6149207210", "isPharmacy": false, "pharmacyHours": [{"dayHours": "9:00 AM - 9:00 PM", "dayOfTheWeek": "M-F"}, {"dayHours": "9:00 AM - 7:00 PM", "dayOfTheWeek": "Sat"}, {"dayHours": "10:00 AM - 6:00 PM", "dayOfTheWeek": "Sun"}]}, {"IsMobileShoppingEnabled": "N", "IsMobilePaymentEnabled": "N", "unitid": 257, "streetAddress": "1201 Lears Rd.", "city": "Petoskey", "state": "MI", "zip": "49770", "latitude": 45.34684, "longitude": -84.96434, "storeHours": "Open 24 hrs a day, 364 days a year.", "storeName": "1201 Lears Rd., Petoskey, MI 49770", "milesFrom": 215.903266854657, "storeShortName": "Petoskey", "storePhoneNumber": "2313486100", "pharmacyPhone": "2313484310", "isPharmacy": false, "pharmacyHours": [{"dayHours": "8:00 AM - 9:00 PM", "dayOfTheWeek": "M-F"}, {"dayHours": "9:00 AM - 7:00 PM", "dayOfTheWeek": "Sat"}, {"dayHours": "10:00 AM - 6:00 PM", "dayOfTheWeek": "Sun"}]}, {"IsMobileShoppingEnabled": "N", "IsMobilePaymentEnabled": "N", "unitid": 223, "streetAddress": "6550 Harrison Ave", "city": "Cincinnati", "state": "OH", "zip": "45247", "latitude": 39.19468, "longitude": -84.6577, "storeHours": "Open 24 hrs a day, 364 days a year.", "storeName": "6550 Harrison Ave, Cincinnati, OH 45247", "milesFrom": 216.206549909258, "storeShortName": "Harrison Ave", "storePhoneNumber": "5135982000", "pharmacyPhone": "5135982010", "isPharmacy": false, "pharmacyHours": [{"dayHours": "9:00 AM - 9:00 PM", "dayOfTheWeek": "M-F"}, {"dayHours": "9:00 AM - 7:00 PM", "dayOfTheWeek": "Sat"}, {"dayHours": "10:00 AM - 6:00 PM", "dayOfTheWeek": "Sun"}]}, {"IsMobileShoppingEnabled": "N", "IsMobilePaymentEnabled": "N", "unitid": 224, "streetAddress": "4825B Marburg Ave", "city": "Cincinnati", "state": "OH", "zip": "45209", "latitude": 39.16164, "longitude": -84.42774, "storeHours": "6am-12am, daily", "storeName": "4825B Marburg Ave, Cincinnati, OH 45209", "milesFrom": 220.88133132925, "storeShortName": "Marburg Ave", "storePhoneNumber": "5134582400", "pharmacyPhone": "5134582410", "isPharmacy": false, "pharmacyHours": [{"dayHours": "9:00 AM - 9:00 PM", "dayOfTheWeek": "M-F"}, {"dayHours": "9:00 AM - 7:00 PM", "dayOfTheWeek": "Sat"}, {"dayHours": "10:00 AM - 6:00 PM", "dayOfTheWeek": "Sun"}]}, {"IsMobileShoppingEnabled": "N", "IsMobilePaymentEnabled": "N", "unitid": 157, "streetAddress": "1082 SR 28", "city": "Milford", "state": "OH", "zip": "45150", "latitude": 39.19722, "longitude": -84.23757, "storeHours": "Open 24 hrs a day, 364 days a year.", "storeName": "1082 SR 28, Milford, OH 45150", "milesFrom": 220.922869261547, "storeShortName": "Milford", "storePhoneNumber": "5135765500", "pharmacyPhone": "5135765510", "isPharmacy": false, "pharmacyHours": [{"dayHours": "9:00 AM - 9:00 PM", "dayOfTheWeek": "M-F"}, {"dayHours": "9:00 AM - 7:00 PM", "dayOfTheWeek": "Sat"}, {"dayHours": "10:00 AM - 6:00 PM", "dayOfTheWeek": "Sun"}]}, {"IsMobileShoppingEnabled": "N", "IsMobilePaymentEnabled": "N", "unitid": 285, "streetAddress": "5600 E. New Margaret Dr", "city": "Terre Haute", "state": "IN", "zip": "47803", "latitude": 39.44267, "longitude": -87.32991, "storeHours": "Open 24 hrs a day, 364 days a year.", "storeName": "5600 E. New Margaret Dr, Terre Haute, IN 47803", "milesFrom": 221.087551208791, "storeShortName": "Terre Haute", "storePhoneNumber": "8122336300", "pharmacyPhone": "8122336310", "isPharmacy": false, "pharmacyHours": [{"dayHours": "9:00 AM - 9:00 PM", "dayOfTheWeek": "M-F"}, {"dayHours": "9:00 AM - 7:00 PM", "dayOfTheWeek": "Sat"}, {"dayHours": "10:00 AM - 6:00 PM", "dayOfTheWeek": "Sun"}]}, {"IsMobileShoppingEnabled": "N", "IsMobilePaymentEnabled": "N", "unitid": 207, "streetAddress": "1900 E College Avenue", "city": "Normal", "state": "IL", "zip": "61761", "latitude": 40.51259, "longitude": -88.94639, "storeHours": "Open 24 hrs a day, 364 days a year.", "storeName": "1900 E College Avenue, Normal, IL 61761", "milesFrom": 221.980270205574, "storeShortName": "Normal", "storePhoneNumber": "3098880800", "pharmacyPhone": "3098880810", "isPharmacy": false, "pharmacyHours": [{"dayHours": "9:00 AM - 9:00 PM", "dayOfTheWeek": "M-F"}, {"dayHours": "9:00 AM - 7:00 PM", "dayOfTheWeek": "Sat"}, {"dayHours": "10:00 AM - 6:00 PM", "dayOfTheWeek": "Sun"}]}, {"IsMobileShoppingEnabled": "N", "IsMobilePaymentEnabled": "N", "unitid": 144, "streetAddress": "2900 Columbus-Lancaster R", "city": "Lancaster", "state": "OH", "zip": "43130", "latitude": 39.7503, "longitude": -82.65493, "storeHours": "Open 24 hrs a day, 364 days a year.", "storeName": "2900 Columbus-Lancaster R, Lancaster, OH 43130", "milesFrom": 226.59622375371, "storeShortName": "Lancaster", "storePhoneNumber": "7406812400", "pharmacyPhone": "7406812410", "isPharmacy": false, "pharmacyHours": [{"dayHours": "8:00 AM - 9:00 PM", "dayOfTheWeek": "M-F"}, {"dayHours": "9:00 AM - 7:00 PM", "dayOfTheWeek": "Sat"}, {"dayHours": "10:00 AM - 6:00 PM", "dayOfTheWeek": "Sun"}]}, {"IsMobileShoppingEnabled": "N", "IsMobilePaymentEnabled": "N", "unitid": 148, "streetAddress": "888 Eastgate N Rd", "city": "Cincinnati", "state": "OH", "zip": "45245", "latitude": 39.09853, "longitude": -84.26464, "storeHours": "Open 24 hrs a day, 364 days a year.", "storeName": "888 Eastgate N Rd, Cincinnati, OH 45245", "milesFrom": 227.049980946947, "storeShortName": "Eastgate N Rd", "storePhoneNumber": "5139435700", "pharmacyPhone": "5139435710", "isPharmacy": false, "pharmacyHours": [{"dayHours": "9:00 AM - 9:00 PM", "dayOfTheWeek": "M-F"}, {"dayHours": "9:00 AM - 7:00 PM", "dayOfTheWeek": "Sat"}, {"dayHours": "10:00 AM - 6:00 PM", "dayOfTheWeek": "Sun"}]}, {"IsMobileShoppingEnabled": "N", "IsMobilePaymentEnabled": "N", "unitid": 151, "streetAddress": "4990 Houston Rd", "city": "Florence", "state": "KY", "zip": "41042", "latitude": 39.01149, "longitude": -84.63837, "storeHours": "Open 24 hrs a day, 364 days a year.", "storeName": "4990 Houston Rd, Florence, KY 41042", "milesFrom": 228.700402701718, "storeShortName": "Florence", "storePhoneNumber": "8597466300", "pharmacyPhone": "8597466310", "isPharmacy": false, "pharmacyHours": [{"dayHours": "9:00 AM - 9:00 PM", "dayOfTheWeek": "M-F"}, {"dayHours": "9:00 AM - 7:00 PM", "dayOfTheWeek": "Sat"}, {"dayHours": "10:00 AM - 6:00 PM", "dayOfTheWeek": "Sun"}]}, {"IsMobileShoppingEnabled": "N", "IsMobilePaymentEnabled": "N", "unitid": 168, "streetAddress": "5400 Alexandria Pike", "city": "Cold Spring", "state": "KY", "zip": "41076", "latitude": 38.99738, "longitude": -84.42171, "storeHours": "Open 24 hrs a day, 364 days a year.", "storeName": "5400 Alexandria Pike, Cold Spring, KY 41076", "milesFrom": 232.336144371926, "storeShortName": "Cold Spring", "storePhoneNumber": "8594484200", "pharmacyPhone": "8594484210", "isPharmacy": false, "pharmacyHours": [{"dayHours": "9:00 AM - 9:00 PM", "dayOfTheWeek": "M-F"}, {"dayHours": "9:00 AM - 7:00 PM", "dayOfTheWeek": "Sat"}, {"dayHours": "10:00 AM - 6:00 PM", "dayOfTheWeek": "Sun"}]}, {"IsMobileShoppingEnabled": "N", "IsMobilePaymentEnabled": "N", "unitid": 294, "streetAddress": "505 N. 26th Street", "city": "Escanaba", "state": "MI", "zip": "49829", "latitude": 45.75179, "longitude": -87.08668, "storeHours": "Open 24 hrs a day, 364 days a year.", "storeName": "505 N. 26th Street, Escanaba, MI 49829", "milesFrom": 254.678607594515, "storeShortName": "Escanaba", "storePhoneNumber": "9062331100", "pharmacyPhone": "9062331110", "isPharmacy": false, "pharmacyHours": [{"dayHours": "8:00 AM - 9:00 PM", "dayOfTheWeek": "M-F"}, {"dayHours": "9:00 AM - 7:00 PM", "dayOfTheWeek": "Sat"}, {"dayHours": "10:00 AM - 6:00 PM", "dayOfTheWeek": "Sun"}]}, {"IsMobileShoppingEnabled": "N", "IsMobilePaymentEnabled": "N", "unitid": 220, "streetAddress": "4222 Charlestown Rd", "city": "New Albany", "state": "IN", "zip": "47150-9567", "latitude": 38.34931, "longitude": -85.793, "storeHours": "Open 24 hrs a day, 364 days a year.", "storeName": "4222 Charlestown Rd, New Albany, IN 47150-9567", "milesFrom": 272.427450901442, "storeShortName": "New Albany", "storePhoneNumber": "8125423800", "pharmacyPhone": "8125423810", "isPharmacy": false, "pharmacyHours": [{"dayHours": "9:00 AM - 9:00 PM", "dayOfTheWeek": "M-F"}, {"dayHours": "9:00 AM - 7:00 PM", "dayOfTheWeek": "Sat"}, {"dayHours": "10:00 AM - 6:00 PM", "dayOfTheWeek": "Sun"}]}, {"IsMobileShoppingEnabled": "N", "IsMobilePaymentEnabled": "N", "unitid": 167, "streetAddress": "2750 Allison Lane", "city": "Jeffersonville", "state": "IN", "zip": "47130", "latitude": 38.32332, "longitude": -85.70903, "storeHours": "Open 24 hrs a day, 364 days a year.", "storeName": "2750 Allison Lane, Jeffersonville, IN 47130", "milesFrom": 274.08080398707, "storeShortName": "Jeffersonville", "storePhoneNumber": "8122186600", "pharmacyPhone": "8122186610", "isPharmacy": false, "pharmacyHours": [{"dayHours": "9:00 AM - 9:00 PM", "dayOfTheWeek": "M-F"}, {"dayHours": "9:00 AM - 7:00 PM", "dayOfTheWeek": "Sat"}, {"dayHours": "10:00 AM - 6:00 PM", "dayOfTheWeek": "Sun"}]}, {"IsMobileShoppingEnabled": "N", "IsMobilePaymentEnabled": "N", "unitid": 164, "streetAddress": "4100 Towne Center Dr", "city": "Louisville", "state": "KY", "zip": "40241", "latitude": 38.29922, "longitude": -85.55388, "storeHours": "Open 24 hrs a day, 364 days a year.", "storeName": "4100 Towne Center Dr, Louisville, KY 40241", "milesFrom": 275.141084357486, "storeShortName": "Westport Rd", "storePhoneNumber": "5023265200", "pharmacyPhone": "5023265210", "isPharmacy": false, "pharmacyHours": [{"dayHours": "9:00 AM - 9:00 PM", "dayOfTheWeek": "M-F"}, {"dayHours": "9:00 AM - 7:00 PM", "dayOfTheWeek": "Sat"}, {"dayHours": "10:00 AM - 6:00 PM", "dayOfTheWeek": "Sun"}]}, {"IsMobileShoppingEnabled": "N", "IsMobilePaymentEnabled": "N", "unitid": 160, "streetAddress": "4500 S Hurstbourne Pkwy", "city": "Louisville", "state": "KY", "zip": "40299", "latitude": 38.1881, "longitude": -85.60796, "storeHours": "Open 24 hrs a day, 364 days a year.", "storeName": "4500 S Hurstbourne Pkwy, Louisville, KY 40299", "milesFrom": 283.117132486721, "storeShortName": "Hurstbourne Pkwy", "storePhoneNumber": "5024934900", "pharmacyPhone": "5024934910", "isPharmacy": false, "pharmacyHours": [{"dayHours": "9:00 AM - 9:00 PM", "dayOfTheWeek": "M-F"}, {"dayHours": "9:00 AM - 7:00 PM", "dayOfTheWeek": "Sat"}, {"dayHours": "10:00 AM - 6:00 PM", "dayOfTheWeek": "Sun"}]}, {"IsMobileShoppingEnabled": "N", "IsMobilePaymentEnabled": "N", "unitid": 176, "streetAddress": "4200 Conestoga Dr", "city": "Springfield", "state": "IL", "zip": "62711", "latitude": 39.73834, "longitude": -89.70171, "storeHours": "Open 24 hrs a day, 364 days a year.", "storeName": "4200 Conestoga Dr, Springfield, IL 62711", "milesFrom": 285.577409467166, "storeShortName": "Springfield", "storePhoneNumber": "2175472400", "pharmacyPhone": "2175472410", "isPharmacy": false, "pharmacyHours": [{"dayHours": "9:00 AM - 9:00 PM", "dayOfTheWeek": "M-F"}, {"dayHours": "9:00 AM - 7:00 PM", "dayOfTheWeek": "Sat"}, {"dayHours": "10:00 AM - 6:00 PM", "dayOfTheWeek": "Sun"}]}, {"IsMobileShoppingEnabled": "N", "IsMobilePaymentEnabled": "N", "unitid": 166, "streetAddress": "9500 Preston Hwy", "city": "Louisville", "state": "KY", "zip": "40229", "latitude": 38.11249, "longitude": -85.67962, "storeHours": "Open 24 hrs a day, 364 days a year.", "storeName": "9500 Preston Hwy, Louisville, KY 40229", "milesFrom": 288.149966501716, "storeShortName": "Preston Hwy", "storePhoneNumber": "5029623700", "pharmacyPhone": "5029623710", "isPharmacy": false, "pharmacyHours": [{"dayHours": "9:00 AM - 9:00 PM", "dayOfTheWeek": "M-F"}, {"dayHours": "9:00 AM - 7:00 PM", "dayOfTheWeek": "Sat"}, {"dayHours": "10:00 AM - 6:00 PM", "dayOfTheWeek": "Sun"}]}, {"IsMobileShoppingEnabled": "N", "IsMobilePaymentEnabled": "N", "unitid": 162, "streetAddress": "9905 Dixie Hwy", "city": "Louisville", "state": "KY", "zip": "40272", "latitude": 38.11166, "longitude": -85.86089, "storeHours": "6am-12am, daily", "storeName": "9905 Dixie Hwy, Louisville, KY 40272", "milesFrom": 288.94376728232, "storeShortName": "Dixie Hwy", "storePhoneNumber": "5029952100", "pharmacyPhone": "5029952110", "isPharmacy": false, "pharmacyHours": [{"dayHours": "9:00 AM - 9:00 PM", "dayOfTheWeek": "M-F"}, {"dayHours": "9:00 AM - 7:00 PM", "dayOfTheWeek": "Sat"}, {"dayHours": "10:00 AM - 6:00 PM", "dayOfTheWeek": "Sun"}]}, {"IsMobileShoppingEnabled": "N", "IsMobilePaymentEnabled": "N", "unitid": 293, "streetAddress": "1138 W. 3 Mile Road", "city": "Sault Sainte Marie", "state": "MI", "zip": "49783", "latitude": 46.46565, "longitude": -84.38769, "storeHours": "Open 24 hrs a day, 364 days a year.", "storeName": "1138 W. 3 Mile Road, Sault Sainte Marie, MI 49783", "milesFrom": 293.275884788536, "storeShortName": "Sault Ste. Marie", "storePhoneNumber": "9062532800", "pharmacyPhone": "9062532810", "isPharmacy": false, "pharmacyHours": [{"dayHours": "8:00 AM - 9:00 PM", "dayOfTheWeek": "M-F"}, {"dayHours": "9:00 AM - 7:00 PM", "dayOfTheWeek": "Sat"}, {"dayHours": "10:00 AM - 6:00 PM", "dayOfTheWeek": "Sun"}]}, {"IsMobileShoppingEnabled": "N", "IsMobilePaymentEnabled": "N", "unitid": 161, "streetAddress": "2155 Paul Jones Way", "city": "Lexington", "state": "KY", "zip": "40509", "latitude": 38.01884, "longitude": -84.42221, "storeHours": "Open 24 hrs a day, 364 days a year.", "storeName": "2155 Paul Jones Way, Lexington, KY 40509", "milesFrom": 298.430656270475, "storeShortName": "Man-O-War", "storePhoneNumber": "8592643000", "pharmacyPhone": "8592643010", "isPharmacy": false, "pharmacyHours": [{"dayHours": "9:00 AM - 9:00 PM", "dayOfTheWeek": "M-F"}, {"dayHours": "9:00 AM - 7:00 PM", "dayOfTheWeek": "Sat"}, {"dayHours": "10:00 AM - 6:00 PM", "dayOfTheWeek": "Sun"}]}, {"IsMobileShoppingEnabled": "N", "IsMobilePaymentEnabled": "N", "unitid": 184, "streetAddress": "351 Meijer Way Suite 100", "city": "Lexington", "state": "KY", "zip": "40503", "latitude": 37.99632, "longitude": -84.53117, "storeHours": "Open 24 hrs a day, 364 days a year.", "storeName": "351 Meijer Way Suite 100, Lexington, KY 40503", "milesFrom": 299.140007370671, "storeShortName": "Reynolds Rd", "storePhoneNumber": "8592193700", "pharmacyPhone": "8592193710", "isPharmacy": false, "pharmacyHours": [{"dayHours": "9:00 AM - 9:00 PM", "dayOfTheWeek": "M-F"}, {"dayHours": "9:00 AM - 7:00 PM", "dayOfTheWeek": "Sat"}, {"dayHours": "10:00 AM - 6:00 PM", "dayOfTheWeek": "Sun"}]}, {"IsMobileShoppingEnabled": "N", "IsMobilePaymentEnabled": "N", "unitid": 302, "streetAddress": "3630 US-41 West", "city": "Marquette", "state": "MI", "zip": "49855", "latitude": 46.55293, "longitude": -87.47132, "storeHours": "Open 24 hrs a day, 364 days a year.", "storeName": "3630 US-41 West, Marquette, MI 49855", "milesFrom": 313.007105973816, "storeShortName": "Marquette", "storePhoneNumber": "9066626300", "pharmacyPhone": "9066626310", "isPharmacy": false, "pharmacyHours": [{"dayHours": "8:00 AM - 9:00 PM", "dayOfTheWeek": "M-F"}, {"dayHours": "9:00 AM - 7:00 PM", "dayOfTheWeek": "Sat"}, {"dayHours": "10:00 AM - 6:00 PM", "dayOfTheWeek": "Sun"}]}, {"IsMobileShoppingEnabled": "N", "IsMobilePaymentEnabled": "N", "unitid": 287, "streetAddress": "2622 Menards Dr", "city": "Evansville", "state": "IN", "zip": "47715", "latitude": 38.00032, "longitude": -87.49569, "storeHours": "Open 24 hrs a day, 364 days a year.", "storeName": "2622 Menards Dr, Evansville, IN 47715", "milesFrom": 315.927163546311, "storeShortName": "Evansville", "storePhoneNumber": "8126472200", "pharmacyPhone": "8126472210", "isPharmacy": false, "pharmacyHours": [{"dayHours": "9:00 AM - 9:00 PM", "dayOfTheWeek": "M-F"}, {"dayHours": "9:00 AM - 7:00 PM", "dayOfTheWeek": "Sat"}, {"dayHours": "10:00 AM - 6:00 PM", "dayOfTheWeek": "Sun"}]}, {"IsMobileShoppingEnabled": "N", "IsMobilePaymentEnabled": "N", "unitid": 258, "streetAddress": "2013 Lantern Ridge Dr.", "city": "Richmond", "state": "KY", "zip": "40475", "latitude": 37.7381, "longitude": -84.33372, "storeHours": "Open 24 hrs a day, 364 days a year.", "storeName": "2013 Lantern Ridge Dr., Richmond, KY 40475", "milesFrom": 318.351432572697, "storeShortName": "Richmond", "storePhoneNumber": "8595755000", "pharmacyPhone": "8595755010", "isPharmacy": false, "pharmacyHours": [{"dayHours": "9:00 AM - 9:00 PM", "dayOfTheWeek": "M-F"}, {"dayHours": "9:00 AM - 7:00 PM", "dayOfTheWeek": "Sat"}, {"dayHours": "10:00 AM - 6:00 PM", "dayOfTheWeek": "Sun"}]}, {"IsMobileShoppingEnabled": "N", "IsMobilePaymentEnabled": "N", "unitid": 288, "streetAddress": "2951 Heartland Crossing Blvd", "city": "Owensboro", "state": "KY", "zip": "42303", "latitude": 37.7558, "longitude": -87.07569, "storeHours": "Open 24 hrs a day, 364 days a year.", "storeName": "2951 Heartland Crossing Blvd, Owensboro, KY 42303", "milesFrom": 325.13204653078, "storeShortName": "Owensboro", "storePhoneNumber": "2703597500", "pharmacyPhone": "2703597510", "isPharmacy": false, "pharmacyHours": [{"dayHours": "9:00 AM - 9:00 PM", "dayOfTheWeek": "M-F"}, {"dayHours": "9:00 AM - 7:00 PM", "dayOfTheWeek": "Sat"}, {"dayHours": "10:00 AM - 6:00 PM", "dayOfTheWeek": "Sun"}]}, {"IsMobileShoppingEnabled": "N", "IsMobilePaymentEnabled": "N", "unitid": 272, "streetAddress": "1676 Westpark Dr.", "city": "Bowling Green", "state": "KY", "zip": "42104", "latitude": 36.9565, "longitude": -86.43768, "storeHours": "Open 24 hrs a day, 364 days a year.", "storeName": "1676 Westpark Dr., Bowling Green, KY 42104", "milesFrom": 372.017791462705, "storeShortName": "Bowling Green", "storePhoneNumber": "2704956700", "pharmacyPhone": "2704956710", "isPharmacy": false, "pharmacyHours": [{"dayHours": "9:00 AM - 9:00 PM", "dayOfTheWeek": "M-F"}, {"dayHours": "9:00 AM - 7:00 PM", "dayOfTheWeek": "Sat"}, {"dayHours": "10:00 AM - 6:00 PM", "dayOfTheWeek": "Sun"}]}]
